address	property	street	locality	town	area	postcode	country	latitude	longitude
200000071925	Sir John Cass C Of E School	St James's Passage		London	City Of London	EC3A 5DE	GB	51.51366237126181	-0.07748588635831655
200000074660	City Of London School For Girls	St Giles' Terrace	Barbican	London	City Of London	EC2Y 8BB	GB	51.51912888149098	-0.09450924178316154
200000072075	St Paul's Cathedral School	2 New Change		London	City Of London	EC4M 9AD	GB	51.513833814981666	-0.09682000273192379
100022936607	City Of London School	107 Queen Victoria Street		London	City Of London	EC4V 3AL	GB	51.51102480105106	-0.09938701420967286
5172210	Netley Primary School Netley Campus	74 Stanhope Street		London	Camden	NW1 3EX	GB	51.527857210654226	-0.13967276465412046
5090707	Argyle Primary School	Tonbridge Street		London	Camden	WC1H 9EG	GB	51.52875024784951	-0.12403722150566607
5090655	Beckford Primary School	Dornfell Street		London	Camden	NW6 1QL	GB	51.550669419644926	-0.1995098210100984
5090625	Brecknock Primary School	York Way		London	Camden	NW1 9AL	GB	51.546934212624436	-0.12748637066774762
5109551	Brookfield Primary School	Chester Road		London	Camden	N19 5DH	GB	51.563436983568124	-0.14456926025492314
5109776	Carlton Primary School	Grafton Road		London	Camden	NW5 4AX	GB	51.55143823808435	-0.14951456134788255
5018016	Edith Neville Primary School	174 Ossulston Street		London	Camden	NW1 1DN	GB	51.53276634846299	-0.13113890421175606
5090740	Fleet Primary School	Fleet Road		London	Camden	NW3 2QT	GB	51.553386218342354	-0.15959049741218612
5090718	Hawley Infant And Nursery School	Buck Street		London	Camden	NW1 8NJ	GB	51.540539429582665	-0.14268868910905996
5090693	Kingsgate Primary School	Kingsgate Road		London	Camden	NW6 4LB	GB	51.54346932669863	-0.1967655229622551
5158308	New End Nursery	Streatley Place		London	Camden	NW3 1HU	GB	51.558153062293066	-0.17692588779323065
5082685	Primrose Hill Primary School	36-40 Princess Road		London	Camden	NW1 8JL	GB	51.53950727873188	-0.15135406455111736
5082509	Rhyl Primary School	7-31 Rhyl Street		London	Camden	NW5 3HB	GB	51.54771431812225	-0.15058872896310135
5023398	Richard Cobden Primary School	29 Camden Street		London	Camden	NW1 0LL	GB	51.53559300627534	-0.13641587348238343
5090649	Torriano Junior And Infant School	Torriano Avenue		London	Camden	NW5 2SJ	GB	51.54967232338469	-0.13284047656881223
5090676	Gospel Oak Primary School	Mansfield Road		London	Camden	NW3 2JB	GB	51.55515673760333	-0.15209002353428105
5076981	Fitzjohn's Primary School	86a Fitzjohn's Avenue		London	Camden	NW3 6NP	GB	51.55378486468288	-0.17532629324247137
5090678	Eleanor Palmer Primary School	Lupton Street		London	Camden	NW5 2JA	GB	51.55488069766862	-0.13917623994473263
5090616	Christ Church Primary School	Christchurch Hill		London	Camden	NW3 1JH	GB	51.559254408361525	-0.17662216816995535
5090641	Christ Church C E Primary School	Redhill Street		London	Camden	NW1 4BD	GB	51.53077322460966	-0.14436936200996062
5167368	Emmanuel Ce Primary School	152-158 Mill Lane		London	Camden	NW6 1TF	GB	51.55183452221948	-0.19457403784823823
5109927	Hampstead Parochial School	Holly Bush Vale		London	Camden	NW3 6TX	GB	51.55632230411437	-0.17948029379242414
5090704	Holy Trinity Primary School	Trinity Walk		London	Camden	NW3 5SQ	GB	51.54608979486096	-0.1777975115219686
5090684	Holy Trinity And St Silas Primary School	Hartland Road		London	Camden	NW1 8DE	GB	51.54412134954355	-0.14571563306484842
5162371	The Play Hut Nw5 Community Play Project	Islip Street		London	Camden	NW5 2TU	GB	51.549739197616084	-0.13931392648584737
5134386	Rosary Rc Primary School	238 Haverstock Hill		London	Camden	NW3 2AE	GB	51.55200587790697	-0.1661948174917586
5090637	St Albans School	Baldwin's Gardens	Holborn And Covent Garden	London	Camden	EC1N 7SD	GB	51.5201717513474	-0.11117187851830938
5090614	St Aloysius Junior School	Aldenham Street		London	Camden	NW1 1PS	GB	51.53162158362033	-0.13435771608678243
5009375	Maria Fidelis Convent Upper School	Phoenix Road		London	Camden	NW1 1TA	GB	51.53034084031689	-0.13185818686079517
5131187	St Dominic's Primary School	Southampton Road		London	Camden	NW5 4JS	GB	51.551288953738315	-0.15774232176346295
5109944	St George The Martyr Primary School	John's Mews		London	Camden	WC1N 2NX	GB	51.522447438739775	-0.11680046704990539
5090710	St Josephs Primary School	Macklin Street		London	Camden	WC2B 5NA	GB	51.51618880488628	-0.12185815185256946
5053070	St Michaels Primary School	88 Camden Street		London	Camden	NW1 0JA	GB	51.53909548709725	-0.13839257332596636
5090698		25-39 Holmes Road		London	Camden	NW5 3AH	GB	51.54920111969345	-0.14281192039299367
5109637	St Pauls Primary School	Elsworthy Road		London	Camden	NW3 3DS	GB	51.541662542007145	-0.16261603970450542
5090731	St Eugene De Mazenod Rc Primary School	Mazenod Avenue		London	Camden	NW6 4LS	GB	51.5411490745761	-0.19382888194569325
5090619	Our Ladys Primary School	Pratt Street		London	Camden	NW1 0DP	GB	51.538865168250396	-0.13747908289462893
5109911	Parliament Hill School	Highgate Road		London	Camden	NW5 1RL	GB	51.5582251126996	-0.14993155421326534
5090652	South Camden Community School	Charrington Street		London	Camden	NW1 1RG	GB	51.533655867725464	-0.13335175824152798
5090623	Hampstead School	Westbere Road		London	Camden	NW2 3RT	GB	51.55561374069734	-0.2070465529694877
5011527	Acland Burghley School	93 Burghley Road		London	Camden	NW5 1UJ	GB	51.5573532488581	-0.14028710532299019
5090615	Camden School For Girls	Sandall Road		London	Camden	NW5 2DB	GB	51.545987905300684	-0.13469315665249315
5109912	William Ellis School	Highgate Road		London	Camden	NW5 1RN	GB	51.55895813836564	-0.1507962480548456
5090721	La Sainte Union Convent School	Highgate Road		London	Camden	NW5 1RP	GB	51.55999788211764	-0.14944123256368674
5053500		32 Belsize Lane		London	Camden	NW3 5AE	GB	51.55098643222364	-0.1700148794997692
5071854		18 Kidderpore Gardens		London	Camden	NW3 7SR	GB	51.557802992126405	-0.19032725779239842
5055751		15 Eton Avenue		London	Camden	NW3 3EL	GB	51.54485888360355	-0.1657466527293585
5090680	University College School	Frognal		London	Camden	NW3 6XH	GB	51.55350593865486	-0.18110733346466637
5137032		31 Inverness Street		London	Camden	NW1 7HB	GB	51.53854150293307	-0.14486093160837027
5013908	St Marys Convent	47-49 Fitzjohn's Avenue		London	Camden	NW3 6PG	GB	51.55053609541271	-0.17632171283894524
5000951	North Bridge House School	8 Netherhall Gardens		London	Camden	NW3 5RR	GB	51.54804975201702	-0.17893073275746144
5042307		14 Strathray Gardens		London	Camden	NW3 4NY	GB	51.54506794667363	-0.16992063834301543
5025711	North Bridge House Nursery School	33 Fitzjohn's Avenue		London	Camden	NW3 5JY	GB	51.54892588458774	-0.17628514028464012
5087242	Montessori Maria Childrens House	26 Lyndhurst Gardens		London	Camden	NW3 5NW	GB	51.55230368029079	-0.1714477227686007
5110228	Hampstead Hill Preparatory School	Pond Street		London	Camden	NW3 2PP	GB	51.553381144477086	-0.16788489499448048
5067462		57 Eton Avenue		London	Camden	NW3 3ET	GB	51.54430474714182	-0.17057139697860388
5083448		3 Maresfield Gardens		London	Camden	NW3 5SS	GB	51.546188904905485	-0.17723107899273532
5023205		2 Parkhill Road		London	Camden	NW3 2YN	GB	51.54770489389747	-0.15856497671915348
5033354		16 New End		London	Camden	NW3 1JA	GB	51.55856939383798	-0.17651972907695088
5013925		19 Greencroft Gardens		London	Camden	NW6 3LP	GB	51.54458896768002	-0.18133314076286217
5087787	Centre Studios	England's Lane		London	Camden	NW3 4YD	GB	51.545456269182594	-0.16197286330534721
5017944		11 Woodchurch Road		London	Camden	NW6 3PL	GB	51.54293234030225	-0.1910903284452412
5001728		16 Netherhall Gardens		London	Camden	NW3 5TH	GB	51.54929892330133	-0.17888085190637498
5090694	Jack Taylor School	Ainsworth Way		London	Camden	NW8 0SR	GB	51.539937619456666	-0.18118690534215862
10000170261	Penn School	Church Road		Penn	Buckinghamshire	HP10 8LZ	GB	51.632447323408584	-0.6913642185909701
5128973	Swiss Cottage School	80 Avenue Road		London	Camden	NW8 6HX	GB	51.54089964455958	-0.17134246622681457
100023280672	Rachel Mcmillan Nursery School	Mcmillan Street		Deptford	Greenwich	SE8 3EH	GB	51.48134945704987	-0.023252857220914924
100023280249	Pound Park Nursery School	Pound Park Road		Charlton	Greenwich	SE7 8AF	GB	51.487032023369814	0.04145390959627827
100023249498	Abbey Wood Nursery School And Childrens Centre	Dahlia Road		Abbey Wood	Greenwich	SE2 0SX	GB	51.48648455958644	0.11236633330710875
200001517263	Robert Owen Early Years Centre	43 Commerell Street		Greenwich		SE10 0EA	GB	51.48785398117904	0.0062849866160514575
10010233365	Pupil Referral Centre Newhaven Centre	Briset Road		Eltham	Greenwich	SE9 6HR	GB	51.46044294679167	0.039058607077182936
100023283259	Greenacres Primary School	Witherston Way		Eltham	Greenwich	SE9 3JN	GB	51.434117551069306	0.05683077603305675
10010215866	Millennium School	50 John Harrison Way		Greenwich		SE10 0BG	GB	51.49316194288956	0.011229227429012462
100023282789	Alderwood Primary School	Restons Crescent		Avery Hill	Greenwich	SE9 2JH	GB	51.44841508021569	0.08607595938873899
10010194247	Bannockburn Primary School Plumstead	Plumstead High Street		Plumstead	Greenwich	SE18 1HE	GB	51.48713538422032	0.09463594852262931
100023236740	Morden Mount School	Lewisham Road		Lewisham	Greenwich	SE13 7QP	GB	51.47015717892443	-0.01442074075805753
100023279427	Cherry Orchard School	Marlborough Lane		Charlton	Greenwich	SE7 7DG	GB	51.47641829320504	0.03234468621636297
100023243032	Conway Junior School	Gallosson Road		Plumstead	Greenwich	SE18 1QY	GB	51.48723217048724	0.0888174552585188
10010199787	Deansfield Infant And Nursery School	Glenesk Road		Eltham	Greenwich	SE9 1RD	GB	51.46202647008423	0.061713310083101984
10010240458	Family Learning Centre	Ealdham Square		Eltham	Greenwich	SE9 6BP	GB	51.456952267560375	0.03502929376671045
10010203419	South Rise Primary School	Brewery Road		Plumstead	Greenwich	SE18 7PX	GB	51.48644367079084	0.0819719181269541
100023243889	Eglinton Junior School	Eglinton Road		Woolwich	Greenwich	SE18 3PY	GB	51.47821734261123	0.0637147553718522
100023279550	Fossdene Primary School	Victoria Way		Charlton	Greenwich	SE7 7NQ	GB	51.484330276204474	0.027016121530599995
100023243004	Gallions Mount Primary School	Purrett Road		Plumstead	Greenwich	SE18 1JR	GB	51.48457126170903	0.09872424157447218
100023282436	Gordon Primary School	Craigton Road		Eltham	Greenwich	SE9 1QG	GB	51.45855592701295	0.05450326819338575
100023284296	Haimo Primary School	Haimo Road		Eltham	Greenwich	SE9 6DY	GB	51.45539043462311	0.04163669097771999
100023227605	Halstow Primary School	Halstow Road		Greenwich		SE10 0LD	GB	51.48505507988493	0.015796579397871574
100023284375	Henwick Primary School	Henwick Road		Eltham	Greenwich	SE9 6NZ	GB	51.46236560864834	0.04285496746409667
100023232882	Horn Park Primary School	Alnwick Road		Eltham	Greenwich	SE12 9BT	GB	51.44464967698732	0.025241404096194693
100023268139	Invicta Primary School	Invicta Road		Blackheath	Greenwich	SE3 7HE	GB	51.47930968952129	0.02063031831578796
10010251070		12 Randall Place		Greenwich		SE10 9LA	GB	51.47942240712691	-0.013780725016549557
100023269118	Kidbrooke Park Primary School	Hargood Road		Kidbrooke	Greenwich	SE3 8HS	GB	51.470024107359414	0.03218202962188623
100023228977	Meridian School	Old Woolwich Road		Greenwich		SE10 9NY	GB	51.48381789692867	-0.0017791250849975217
10010198245	Sherington School	Wyndcliff Road		Charlton	Greenwich	SE7 7JP	GB	51.48036815507781	0.025715634959424815
100023280277	Thorntree School	Pound Park Road		Charlton	Greenwich	SE7 8AE	GB	51.48674490968716	0.04145246394773223
100023243229	Timbercroft Primary School	Timbercroft Lane		Plumstead	Greenwich	SE18 2SG	GB	51.47716665280733	0.09036288558599168
100023244656	Woodhill Primary School	Woodhill		Woolwich	Greenwich	SE18 5JE	GB	51.489183578902455	0.049334087696139756
10010240801	Wyborne Nursery School	Footscray Road		Eltham	Greenwich	SE9 2EH	GB	51.43977026587913	0.0692718727525577
100023283258	Montbelle School	Milverton Way		Eltham	Greenwich	SE9 3EY	GB	51.427804816406756	0.0624453163469067
100023269713	Brooklands School	Medebourne Close		Blackheath	Greenwich	SE3 9AB	GB	51.46411014298295	0.018458208375770772
100023249698	Boxgrove Primary School	Boxgrove Road		Abbey Wood	Greenwich	SE2 9JP	GB	51.49332358458037	0.11710521886581528
100023243259	Rockliffe Manor School	Bassant Road		Plumstead	Greenwich	SE18 2NP	GB	51.4783163332797	0.09451785692205879
100023249695	De Lucy Primary School	Cookhill Road		Abbey Wood	Greenwich	SE2 9PD	GB	51.49588140769813	0.1114251959650935
10010240800	Wingfield Nursery School	Moorehead Way		Kidbrooke	Greenwich	SE3 9XU	GB	51.46169306934785	0.022199483524186606
10010240457	Cardwell Childrens Centre	Frances Street		Woolwich	Greenwich	SE18 5LP	GB	51.490323045160004	0.05295363698354882
10010213441	Foxfield School	Sandbach Place		Plumstead	Greenwich	SE18 7EX	GB	51.48661488449536	0.07484971014265412
10010233312	Windrush Nursery School	Bentham Road		Thamesmead	Greenwich	SE28 8AR	GB	51.50283916050208	0.11535230060669166
100023267210	Linton Mead Primary School	Central Way		Thamesmead	Greenwich	SE28 8DT	GB	51.508017247403366	0.11324159190041723
100023246397	Nightingale Primary School	Bloomfield Road		Plumstead	Greenwich	SE18 7JJ	GB	51.483113576075446	0.07045212829330019
100023243256	Greenslade Primary School	Erindale		Plumstead	Greenwich	SE18 2QQ	GB	51.479508433957264	0.08626059886515561
100023245287	Mulgrave Primary School	Rectory Place		Woolwich	Greenwich	SE18 5DL	GB	51.48854458799794	0.06075364637459301
200001085631	Charlton Manor Primary School	Indus Road		Charlton	Greenwich	SE7 7EF	GB	51.47762991794646	0.03678412469309199
200002800566	Christ Church School	45 Commerell Street		Greenwich		SE10 0DZ	GB	51.48819307113036	0.006733157277982701
10010201626	Christ Church Primary School	Shooters Hill		Plumstead	Greenwich	SE18 3RS	GB	51.46990464818614	0.060509952743555695
100023282435	Eltham C Of E Primary School	Roper Street		Eltham	Greenwich	SE9 1TR	GB	51.451651224096324	0.05645295136700041
100020950239	Our Lady Of Grace Rc Jmi School	Charlton Road		Charlton	Greenwich	SE7 7EZ	GB	51.47994629923986	0.028046459083870476
100023246065	St Margarets Primary School	St Margarets Grove		Plumstead	Greenwich	SE18 7RL	GB	51.48329649456399	0.07580738323717827
10010240417	St Mary Magdalene Primary School	Kingsman Street		Woolwich	Greenwich	SE18 5PW	GB	51.49124376977213	0.06119373294045888
100023282375	St Marys Rc School	Glenure Road		Eltham	Greenwich	SE9 1UF	GB	51.45383101248652	0.06341670624206382
100023246394	St Patricks School	Griffin Road		Plumstead	Greenwich	SE18 7QG	GB	51.48784746351724	0.0854626904403207
10010200592	St Alfege And St Peters Primary School	Creek Road		Deptford	Greenwich	SE10 9RB	GB	51.48164325501269	-0.012502376723712502
10010202775	St Peters Rc Primary School	42 Crescent Road		Woolwich	Greenwich	SE18 7BN	GB	51.487163953787714	0.06856069410362657
100023284387	St Thomas More Rc Primary School	Appleton Road		Eltham	Greenwich	SE9 6NS	GB	51.461754151336514	0.044915102395026406
100023249699	St Thomas A Beckett Primary School	230 Mottisfont Road		Abbey Wood	Greenwich	SE2 9LY	GB	51.49154094444272	0.10423038233857672
100023270022	Holy Family Rc Primary School	Tudway Road		Kidbrooke	Greenwich	SE3 9YX	GB	51.45994767737662	0.030366803355562876
10010228391	Notre Dame Rc Primary School	171 Eglinton Road		Woolwich	Greenwich	SE18 3SJ	GB	51.48127048936972	0.06718082965941954
10010194799	St Margaret Clitherow Rc Primary School	1 Cole Close		Thamesmead	Greenwich	SE28 8GB	GB	51.50112939309284	0.11311555921957644
100023267157	Bishop John Robinson Primary School	Hoveton Road		Thamesmead	Greenwich	SE28 8LW	GB	51.5082482891578	0.11864832382020747
100023284003	Eltham Hill School	122 Eltham Hill		Eltham	Greenwich	SE9 5EE	GB	51.4509358270433	0.04531074381604185
100023537874	Plumstead Manor School	Old Mill Road		Plumstead	Greenwich	SE18 1QF	GB	51.48244132507824	0.0847404478210297
100023267028	Woolwich Polytechnic School	Hutchins Road		Thamesmead	Greenwich	SE28 8AT	GB	51.50354341460728	0.10840007269847295
10010240460	Eltham Green Nursery School	Middle Park Avenue		Eltham	Greenwich	SE9 5EQ	GB	51.45071417340702	0.0388726382055397
10010240474	Thomas Tallis School	Kidbrooke Park Road		Kidbrooke	Greenwich	SE3 9PX	GB	51.465021662569235	0.02636013416604996
100023268141	The John Roan School	Maze Hill		Greenwich		SE3 7UD	GB	51.47863176815532	0.007030915238693419
100023227816	St Ursulas Convent School	70 Crooms Hill		Greenwich		SE10 8HN	GB	51.47587327810615	-0.006464652475569462
100023249499	St Pauls Secondary School	Oakmere Road		Abbey Wood	Greenwich	SE2 0XX	GB	51.479704823228886	0.1038151217578576
100023269325	Blackheath Bluecoat School	Old Dover Road		Blackheath	Greenwich	SE3 8SY	GB	51.47667392627084	0.028275144075343005
100023282798	St Thomas More School	Footscray Road		Eltham	Greenwich	SE9 2SU	GB	51.4480759616668	0.0608401285538403
100023267208	Hawksmoor Primary School	Bentham Road		Thamesmead	Greenwich	SE28 8AS	GB	51.50434779585725	0.11267366267227176
100023269083	The Pointer School	19 Stratheden Road		Blackheath	Greenwich	SE3 7TH	GB	51.47485561756509	0.01746371389195968
10010195572	Riverston School	63-69 Eltham Road		Eltham	Greenwich	SE12 8UF	GB	51.455086370146745	0.019840501008627394
10010197425		106-110 Southwood Road		Eltham	Greenwich	SE9 3QS	GB	51.43572830402673	0.06648553958412726
100023267627		37 Wemyss Road	Blackheath	London	Lewisham	SE3 0TG	GB	51.467088915689914	0.009432685522237205
100023284144	Moatbridge School	Eltham Palace Road		Eltham	Greenwich	SE9 5LX	GB	51.44908899209022	0.03890889441669543
100023279825	Charlton Park School	Charlton Park Road		Charlton	Greenwich	SE7 8HX	GB	51.481691802533355	0.046223420915817624
10010224939	Willow Dene School	Swingate Lane		Plumstead	Greenwich	SE18 2JD	GB	51.47273763433512	0.09020907223320321
100023246399	Waterside Primary School	Robert Street		Plumstead	Greenwich	SE18 7NB	GB	51.4867709407504	0.0812666214590307
100023249537	Bannockburn Primary School	30 Church Manorway		Abbey Wood	Greenwich	SE2 0HY	GB	51.48704486914612	0.10170427785332907
100023020639	Wentworth Nursery School And Childrens Centre	Cassland Road	Hackney	London	Hackney	E9 5BY	GB	51.5432538870964	-0.04142497648305273
100023135385	Comet Nursery School	20 Halcomb Street	Hackney	London	Hackney	N1 5RF	GB	51.53613925406509	-0.08050423719923551
100021072733	Brook Community Primary School	Sigdon Road	Hackney	London	Hackney	E8 1AS	GB	51.54876519846241	-0.0624772692502909
100021026086	Benthal Primary School	Benthal Road	Hackney	London	Hackney	N16 7AU	GB	51.558297068921746	-0.06518829005419173
100023544462	Berger Primary School	Berger Road	Hackney	London	Hackney	E9 6HB	GB	51.546117711297676	-0.044424921758782335
100023015314	Colvestone Primary School	Colvestone Crescent	Hackney	London	Hackney	E8 2LG	GB	51.54913691715047	-0.07413010249625764
100023545426	Daubeney Nursery School	Daubeney Road	Hackney	London	Hackney	E5 0EG	GB	51.55205102942972	-0.03780161885660071
100021026159	Gainsborough Primary School	Berkshire Road	Hackney	London	Hackney	E9 5ND	GB	51.54615221272931	-0.025493296756054287
100023015772	Gayhurst Primary School	Gayhurst Road	Hackney	London	Hackney	E8 3EN	GB	51.54236460887259	-0.06260494357891867
10008320294	The Bridge Academy	Laburnum Street	Hackney	London	Hackney	E2 8BA	GB	51.53566022508985	-0.07267268226420484
100023024242	Lauriston Junior And Infant School	Rutland Road	Hackney	London	Hackney	E9 7JS	GB	51.536626492194536	-0.04574699269576736
100023016453	London Fields Primary School	Westgate Street	Hackney	London	Hackney	E8 3RL	GB	51.53730455595646	-0.060051233022137156
100023546084	Millfields Community School	Hilsea Street	Hackney	London	Hackney	E5 0SH	GB	51.555867500240936	-0.050966708472746
100023022301	Morningside Primary School	Chatham Place	Hackney	London	Hackney	E9 6LL	GB	51.546503913608575	-0.05028518975668075
200001851633	Northwold Junior And Infant School	Northwold Road	Hackney	London	Hackney	E5 8RN	GB	51.56241528052379	-0.06407568357087168
100021047054	Orchard Junior And Infant School	Holcroft Road	Hackney	London	Hackney	E9 7BB	GB	51.54084513807103	-0.049056131309082845
100022992335	Randal Cremer Primary School	Ormsby Street	Hackney	London	Hackney	E2 8JG	GB	51.53337633257105	-0.07488189997587959
100022992368	Sebright Primary School	Audrey Street	Hackney	London	Hackney	E2 8QH	GB	51.533957749718375	-0.06594660472972232
100023015505	Shacklewell Primary School	Shacklewell Row	Hackney	London	Hackney	E8 2EA	GB	51.553232995864605	-0.07275984042267847
100021036932	Southwold Primary School	Detmold Road	Hackney	London	Hackney	E5 9NL	GB	51.56343846674476	-0.05362959049407836
10008242905	Thomas Fairchild Community School	Forston Street	Hackney	London	Hackney	N1 7HA	GB	51.533208479524774	-0.09102322922918969
100023159197	Tyssen Primary School	Oldhill Street	Hackney	London	Hackney	N16 6QA	GB	51.569278151262786	-0.06635266679487949
100023545808	Whitmore Primary School	Grange Street	Hackney	London	Hackney	N1 5JN	GB	51.535021726043915	-0.08585745305538016
100023651862	William Patten Primary School	Stoke Newington Church Street	Hackney	London	Hackney	N16 0NX	GB	51.56180287583428	-0.07495119301376549
100023183149	Woodberry Down Primary School	Woodberry Grove	Hackney	London	Hackney	N4 1SY	GB	51.57357635288576	-0.09050132943068986
100021048918	Kingsmead Primary School	Kingsmead Way	Hackney	London	Hackney	E9 5PP	GB	51.553582828113846	-0.03529787494393063
10008337671		83-95 Bethune Road	Hackney	London	Hackney	N16 5ED	GB	51.57120184886473	-0.08173821655038965
100021022474	Grasmere Primary School	92 Albion Road	Hackney	London	Hackney	N16 9PD	GB	51.55501060081407	-0.08356142207672493
100023159140	Jubilee Primary School	Filey Avenue	Hackney	London	Hackney	N16 6NR	GB	51.56607002127696	-0.06594048622429209
100021068968	Nightingale Primary School	Rendlesham Road	Hackney	London	Hackney	E5 8PH	GB	51.55674805711523	-0.06450388094895759
100021040735	Baden Powell Primary School	Ferron Road	Hackney	London	Hackney	E5 8DN	GB	51.557329936171705	-0.057814307190007554
100023007810	Harrington Hill Primary School	Harrington Hill	Hackney	London	Hackney	E5 9EY	GB	51.56725864817139	-0.05407246842344277
100023157631	Holmleigh Road Primary School	21-25 Dunsmure Road	Hackney	London	Hackney	N16 5PU	GB	51.57011258887691	-0.07498978254711212
100021055647	Grazebrook Primary School	Lordship Road	Hackney	London	Hackney	N16 0QP	GB	51.56419393113762	-0.08313203009490051
100023186921	Parkwood Primary School	Queens Drive	Hackney	London	Hackney	N4 2HQ	GB	51.56506864631348	-0.09931289727132595
100023002674	Mandeville Primary School	Oswald Street	Hackney	London	Hackney	E5 0BT	GB	51.5570897872896	-0.039589980540236734
100023020640	St Dominics Roman Catholic Primary School	Ballance Road	Hackney	London	Hackney	E9 5SR	GB	51.54550745214948	-0.037982199338418045
100021035230	St John The Baptist C Of E Primary School	Crondall Street	Hackney	London	Hackney	N1 6JG	GB	51.53087255837835	-0.08398418586388386
100023161573	St Matthias C Of E School	Wordsworth Road	Hackney	London	Hackney	N16 8DD	GB	51.552144661867196	-0.07932569415372012
100023135547	St Monicas Roman Catholic School	Hoxton Square	Hackney	London	Hackney	N1 6NT	GB	51.52841643019191	-0.08061282305859577
100023018342	St Pauls With St Michaels Church Of England Primary School	Brougham Road	Hackney	London	Hackney	E8 4PB	GB	51.53749335499742	-0.06549390632988747
10008339964	Beis Yaakov Girls School The Avigdor Mews	Lordship Road	Hackney	London	Hackney	N16 0QJ	GB	51.56446217866759	-0.0858973381714302
100021050728	St Scholasticas Rc Junior Middle And Infant School	Kenninghall Road	Hackney	London	Hackney	E5 8BS	GB	51.558765510833474	-0.06251391855190785
100023157753	Simon Marks Primary School	75 Cazenove Road	Hackney	London	Hackney	N16 6PD	GB	51.565698218521476	-0.06848129799053516
100023005708	Stormont House School	Downs Park Road	Hackney	London	Hackney	E5 8NP	GB	51.55271561543836	-0.060463053652593315
100021081244	Haggerston Secondary School	Weymouth Terrace	Hackney	London	Hackney	E2 8LS	GB	51.532385427364375	-0.07149217196673766
100023001701	Clapton Girls Technology College	Laura Place	Hackney	London	Hackney	E5 0RB	GB	51.554715337894024	-0.05198245803241971
10008229436	Our Ladys Convent High School	6-16 Amhurst Park	Hackney	London	Hackney	N16 5AF	GB	51.57427110803251	-0.07523260024881559
10008337936	Beis Ruchol Of Satmar School	117 Stamford Hill	Hackney	London	Hackney	N16 5RS	GB	51.57269167165973	-0.07317277361838394
100023020882	Formerly Hackney Free And Parochial Church Of England Secondary School	Paragon Road	Hackney	London	Hackney	E9 6NR	GB	51.54445102591447	-0.05392077515047117
100023020878		205 Morning Lane	Hackney	London	Hackney	E9 6LG	GB	51.54678545076092	-0.046716055532040265
10008313958	Yesodey Hatorah Community Nursery Yesodey Hatorah School	2-4 Amhurst Park	Hackney	London	Hackney	N16 5AE	GB	51.57420559722259	-0.07452822693590958
100023155932		107-115 Stamford Hill	Hackney	London	Hackney	N16 5RP	GB	51.57223403661566	-0.07329833674727926
100023156020		51-57 Amhurst Park	Hackney	London	Hackney	N16 5DL	GB	51.574501604995994	-0.07997083749782978
100023006360	Belz Nursery School	96-98 Clapton Common	Hackney	London	Hackney	E5 9AL	GB	51.5724088315971	-0.06533952696262159
10008313948	Cma Nursery	26 Lampard Grove	Hackney	London	Hackney	N16 6XB	GB	51.567158372433866	-0.07087238111886834
100023155943	Getters Talmud Torah	86 Amhurst Park	Hackney	London	Hackney	N16 5AR	GB	51.57495287822122	-0.0833721255414248
100023158226	Egerton Nursery	87 Egerton Road	Hackney	London	Hackney	N16 6UE	GB	51.57423894710897	-0.06835015151773217
100023156178		14 Heathland Road	Hackney	London	Hackney	N16 5NH	GB	51.56804323475404	-0.08151274651367732
100023157951	Tayyibah School	88 Filey Avenue	Hackney	London	Hackney	N16 6JJ	GB	51.56740685610907	-0.061396236678493366
100023157765		88 Cazenove Road	Hackney	London	Hackney	N16 6AB	GB	51.56525972083438	-0.06751873507270956
6152826	Unit D Great Eastern Enterprise Centre	3 Millharbour		London	Tower Hamlets	E14 9XP	GB	51.49862759258901	-0.018061583091070393
100023005480	Downsview School	Tiger Way	Hackney	London	Hackney	E5 8QP	GB	51.555949631198324	-0.059719597268334784
10008336524	The Garden	Wordsworth Road	Hackney	London	Hackney	N16 8BZ	GB	51.5541660980671	-0.07846389574390754
34136916	Normand Croft Community School	Bramber Road		London	Hammersmith And Fulham	W14 9PA	GB	51.48505837011379	-0.20405416526564563
34019163	Randolph Beresford Centre	Australia Road	White City Estate	London	Hammersmith And Fulham	W12 7PH	GB	51.51083908563389	-0.23242481144293092
34115968	Vanessa Nursery School	14 Cathnor Road		London	Hammersmith And Fulham	W12 9JA	GB	51.50193077661393	-0.23442646430065162
34061517	James Lee Nursery School	Gliddon Road		London	Hammersmith And Fulham	W14 9BH	GB	51.49222789863076	-0.2136400376240294
34050392	Bayonne Nursery School	50 Paynes Walk		London	Hammersmith And Fulham	W6 8PF	GB	51.48440779866564	-0.21444975067338548
34138531	Bridge Academy	Finlay Street		London	Hammersmith And Fulham	SW6 6HB	GB	51.47576973482071	-0.21942390093941672
34034762	Addison Primary School	Addison Gardens		London	Hammersmith And Fulham	W14 0DT	GB	51.49981248757805	-0.21922181958597953
34061918	St James Independent Schools	Earsby Street		London	Hammersmith And Fulham	W14 8SH	GB	51.494896299865175	-0.2093579491609483
34020822	Ark Bentworth Primary Academy	Bentworth Road		London	Hammersmith And Fulham	W12 7AJ	GB	51.51532454751612	-0.2323088335636355
34120927	Brackenbury Primary School	207 Dalling Road		London	Hammersmith And Fulham	W6 0BA	GB	51.49989270673727	-0.23284834632035595
34018350	Ark Swift Primary Academy	Australia Road	White City Estate	London	Hammersmith And Fulham	W12 7PT	GB	51.51183394542788	-0.22982107107975205
34121787	Miles Coverdale Primary School	Coverdale Road		London	Hammersmith And Fulham	W12 8JJ	GB	51.504112603412636	-0.2288379021781204
34006524	Flora Gardens Primary School	Dalling Road		London	Hammersmith And Fulham	W6 0UD	GB	51.49483382247028	-0.23549302267828182
34071880	Fulham Primary School	Halford Road		London	Hammersmith And Fulham	SW6 1JU	GB	51.48353535747466	-0.19797851343330514
34118525	New Kings Primary School	New King's Road		London	Hammersmith And Fulham	SW6 4LY	GB	51.47208548089616	-0.20544200544785984
34020889	Kenmont Primary School	Valliere Road		London	Hammersmith And Fulham	NW10 6AL	GB	51.53169954438694	-0.23468791030030173
34066787	Langford Primary School	Gilstead Road		London	Hammersmith And Fulham	SW6 2LG	GB	51.4726940079331	-0.18887351106047034
34036703	Lena Gardens Primary School	Lena Gardens		London	Hammersmith And Fulham	W6 7PZ	GB	51.49892679180453	-0.2248608081005727
34024701	Melcombe Primary School	Fulham Palace Road		London	Hammersmith And Fulham	W6 9ER	GB	51.486182444699075	-0.2211644094177225
34004371	Old Oak Primary School	Mellitus Street		London	Hammersmith And Fulham	W12 0AS	GB	51.51801557172643	-0.2438362363767278
34068336	Marie D'orliac	Clancarty Road		London	Hammersmith And Fulham	SW6 3AA	GB	51.47101973502033	-0.19576476357274264
34026012	Queens Manor Primary School	Lysia Street		London	Hammersmith And Fulham	SW6 6ND	GB	51.47984318930887	-0.2217854996768098
34054651	Sir John Lillie Primary School	Lillie Road		London	Hammersmith And Fulham	SW6 7LN	GB	51.48306643570538	-0.20963413716774856
34119083	Sulivan Primary School	42 Peterborough Road		London	Hammersmith And Fulham	SW6 3BN	GB	51.470645204746106	-0.19947995255056378
34124289	Wendell Park Primary School	Stronsa Road		London	Hammersmith And Fulham	W12 9LB	GB	51.503318023127825	-0.24898329150341658
34123057	Wormholt Park Primary School	37 Bryony Road		London	Hammersmith And Fulham	W12 0SR	GB	51.51167158228895	-0.23874800335934984
34012145	Greenside Primary School	Westville Road		London	Hammersmith And Fulham	W12 9PT	GB	51.50345806696153	-0.23732123428828453
34107348	All Saints School	Bishop's Avenue		London	Hammersmith And Fulham	SW6 6ED	GB	51.47285802630825	-0.21363361713084492
34130857	Holy Cross Rc School	Basuto Road		London	Hammersmith And Fulham	SW6 4BL	GB	51.475775856731644	-0.19862992853853784
34013730	John Betts Primary School	Paddenswick Road		London	Hammersmith And Fulham	W6 0UA	GB	51.49682454341315	-0.23571868774864857
34050394	St Augustines Primary School	Disbrowe Road		London	Hammersmith And Fulham	W6 8QE	GB	51.48428013320337	-0.2096154073591021
34030459	Larmenier And Sacred Heart Catholic Primary School	41a Brook Green		London	Hammersmith And Fulham	W6 7JP	GB	51.494409974713264	-0.2175739976815626
34120103	St Johns C Of E Primary School	Filmer Road		London	Hammersmith And Fulham	SW6 6AS	GB	51.476971179461174	-0.20915278847747426
34119478	St Marys Rc Primary School	Faroe Road		London	Hammersmith And Fulham	W14 0LT	GB	51.49813263372441	-0.21637705403399887
34030291	St Pauls Primary School	Worlidge Street		London	Hammersmith And Fulham	W6 9BP	GB	51.49063517255609	-0.22719955096614478
34008526	St Peter's Church Of England Primary School	33 St Peter's Road		London	Hammersmith And Fulham	W6 9BA	GB	51.49216108275585	-0.24014826710738194
34117423	First Floor St Stephens House	41 Uxbridge Road		London	Hammersmith And Fulham	W12 8LH	GB	51.50571651947674	-0.2284587012160415
34124292	The Good Shepherd R C Primary School	Gayford Road		London	Hammersmith And Fulham	W12 9BY	GB	51.50263317372627	-0.24527774143571643
34019162	Pope John School	Commonwealth Avenue	White City Estate	London	Hammersmith And Fulham	W12 7QR	GB	51.512219330664465	-0.23271726539158727
34055742	St Thomas Of Canterbury Rc Primary School	Estcourt Road		London	Hammersmith And Fulham	SW6 7HB	GB	51.48134057840839	-0.2073254210621968
34046171	Fulham College Boys	Kingwood Road		London	Hammersmith And Fulham	SW6 6SN	GB	51.47778318826642	-0.21522688954115612
34014195	Phoenix High School	The Curve		London	Hammersmith And Fulham	W12 0RQ	GB	51.51316054514206	-0.23789792573379925
34109091	Fulham Cross School	Munster Road		London	Hammersmith And Fulham	SW6 6BP	GB	51.48137365946113	-0.2142082100411095
34063756	Hurlingham And Chelsea School	Peterborough Road		London	Hammersmith And Fulham	SW6 3ED	GB	51.46782109818914	-0.19652443587014948
34020040	Burlington Danes School	Wood Lane		London	Hammersmith And Fulham	W12 0HR	GB	51.51892103344181	-0.22989222970720183
34027236	Sacred Heart High School	212 Hammersmith Road		London	Hammersmith And Fulham	W6 7DG	GB	51.49357146824343	-0.22335457156646696
34068392	Lady Margaret Secondary School For Girls	9-15 Parsons Green		London	Hammersmith And Fulham	SW6 4UN	GB	51.47418176116071	-0.19964309907689648
34069887	London Oratory School	Seagrave Road		London	Hammersmith And Fulham	SW6 1RX	GB	51.48192514756962	-0.19385098758972577
34026608	St Pauls Girls School	Brook Green		London	Hammersmith And Fulham	W6 7BS	GB	51.49513087595953	-0.21885683959025373
10070709795	Unit B Kingsway Business Park	Oldfield Road		Hampton	Richmond Upon Thames	TW12 2HD	GB	51.415499875571626	-0.3785193901951691
34028128	Bute House Preparatory School	Luxemburg Gardens		London	Hammersmith And Fulham	W6 7EA	GB	51.49581440735157	-0.2218267247467301
34004726	Godolphin And Latymer School	Iffley Road		London	Hammersmith And Fulham	W6 0PG	GB	51.49530771340193	-0.22994273892797584
34004704	Latymer Upper School	237 King Street		London	Hammersmith And Fulham	W6 9LR	GB	51.49273557581587	-0.23708660680189403
34027249		59 Brook Green		London	Hammersmith And Fulham	W6 7BE	GB	51.495870920409054	-0.21784835649705012
34041166	Al-muntada Al-islami Trust	7 Bridges Place		London	Hammersmith And Fulham	SW6 4HW	GB	51.47656161452045	-0.20178145161266148
34006775		16 Ravenscourt Avenue		London	Hammersmith And Fulham	W6 0SL	GB	51.49410485997413	-0.238445552635604
34107339	Basement	159 Munster Road		London	Hammersmith And Fulham	SW6 6DA	GB	51.4777412774314	-0.210706704068025
34065625	L'ecoles Des Petits School	2 Hazlebury Road		London	Hammersmith And Fulham	SW6 2NB	GB	51.472070833372506	-0.19102923683001935
34014890	Queensmill School	1 Askham Road		London	Hammersmith And Fulham	W12 0NW	GB	51.50706274125615	-0.24262907261454214
100081273361	Heathermount	Devenish Road	Sunningdale	Ascot	Windsor And Maidenhead	SL5 9PG	GB	51.39487704317369	-0.6530479578616785
34138527	Jack Tizard School	South Africa Road		London	Hammersmith And Fulham	W12 7PA	GB	51.50936392260738	-0.23359152340446335
34016295	Cambridge School	61 Bryony Road		London	Hammersmith And Fulham	W12 0SP	GB	51.51213070811256	-0.2369865035000686
34061523	Gibbs Green Offices	Mund Street		London	Hammersmith And Fulham	W14 9LY	GB	51.48959457650667	-0.20314128997825226
5300049488	Children's Day Centre	29 Hornsey Rise	Islington	London	Islington	N19 3SF	GB	51.57172769140148	-0.1253132481608662
5300092141	Kate Greenaway Nursery School	Treaty Street	Islington	London	Islington	N1 0UH	GB	51.53633902532916	-0.12061062654837738
5300091556	North Islington Nursery School	110 Tollington Park	Islington	London	Islington	N4 3RB	GB	51.5666716211692	-0.11338646452679518
10090549050	City And Islington College	103 Golden Lane	Islington	London	Islington	EC1Y 0TZ	GB	51.5231370177523	-0.09601409532374541
5300090364	Thornhill Primary School	11 Thornhill Road	Islington	London	Islington	N1 1HX	GB	51.54084347745389	-0.10992670755731107
5300011665	Robert Blair Primary School	27 Brewery Road	Islington	London	Islington	N7 9QJ	GB	51.54474726159545	-0.12174965744213613
5300034340	Yerbury Primary School	67 Foxham Road	Islington	London	Islington	N19 4RR	GB	51.56120684943057	-0.13040595234690508
10090262925	New River College	Lough Road	Islington	London	Islington	N7 8RH	GB	51.547530504606335	-0.11306782238456434
5300010220	Ambler Primary School	80 Blackstock Road	Islington	London	Islington	N4 2DR	GB	51.5625540820114	-0.10174061368501311
5300092138	Copenhagen Primary School	Treaty Street	Islington	London	Islington	N1 0WF	GB	51.535626713795494	-0.11880873594335241
5300003788	Drayton Park Primary School	Drayton Park	Islington	London	Islington	N5 1PJ	GB	51.55154908121593	-0.10574713197375218
5300089309	Duncombe Primary School	Sussex Way	Islington	London	Islington	N19 4JA	GB	51.5669899360806	-0.12370450605770554
5300035489	Gillespie Primary School	Gillespie Road	Islington	London	Islington	N5 1LH	GB	51.56004349116603	-0.09996966244756127
5300029360	Grafton Junior School	9 Eburne Road	Islington	London	Islington	N7 6AR	GB	51.5591830336316	-0.11912079789031038
5300067217	Hanover Primary School	Noel Road	Islington	London	Islington	N1 8BD	GB	51.53294725573813	-0.09874797321331885
10012791545	Hargrave Park Primary School	51 Bredgar Road	Islington	London	Islington	N19 5BS	GB	51.56406031807154	-0.13963833069703224
5300055557	Laycock Primary School	3 Laycock Street	Islington	London	Islington	N1 1SW	GB	51.54450946527215	-0.10472710442892347
5300050548	Montem Primary School Montem Community Campus	Hornsey Road	Islington	London	Islington	N7 7QT	GB	51.56099342045959	-0.11481893595040489
5300064690	Moreland Primary School	Moreland Street	Islington	London	Islington	EC1V 8BB	GB	51.52852253283501	-0.09927831990209401
5300061180	Schoolkeeper's House Newington Green Primary School	105 Matthias Road	Islington	London	Islington	N16 8NP	GB	51.55151612710532	-0.08323229104492914
5300070895	Pakeman Primary School	21 Pakeman Street	Islington	London	Islington	N7 6DU	GB	51.55874373460848	-0.11416179114924078
5300056033	Pooles Park Primary School	3 Lennox Road	Islington	London	Islington	N4 3NW	GB	51.564919141816425	-0.11233358854677115
5300080316	Rotherfield Junior School	23 Rotherfield Street	Islington	London	Islington	N1 3EE	GB	51.539034255010336	-0.0909380807603224
5300038741	Vittoria Primary School	36 Half Moon Crescent	Islington	London	Islington	N1 0TJ	GB	51.53507994763716	-0.11276088788464954
5300080909	Schoolkeepers House William Tyndale Primary School	Upper Street	Islington	London	Islington	N1 2GG	GB	51.54241524131092	-0.1014539513238861
5300054169	Winton Primary School	Killick Street	Islington	London	Islington	N1 9AZ	GB	51.532664793003164	-0.1180369182937068
5300026902	Tufnell Park Primary School	Dalmeny Road	Islington	London	Islington	N7 0HJ	GB	51.554449220268474	-0.1295723240638005
5300045011	Schoolkeeper's House Highbury Quadrant Primary School	104 Highbury New Park	Islington	London	Islington	N5 2DP	GB	51.55394105664974	-0.09187190315150454
10091003618	Ashmount Primary School	83 Crouch Hill	Islington	London	Islington	N8 9EG	GB	51.57380542113487	-0.12421757667683098
10091005724	Whitehall Park School	Ashmount Road	Islington	London	Islington	N19 3BH	GB	51.57208985425412	-0.13336509371439514
10023219490	Prior Weston Primary School Golden Lane Campus	101 Whitecross Street	Islington	London	Islington	EC1Y 8JA	GB	51.52194463347176	-0.09346915391066776
5300051828	Hungerford Junior School	249 Hungerford Road	Islington	London	Islington	N7 9LF	GB	51.54869145347474	-0.1265920937355272
5300001833	Clerkenwell Parochial Church Of England Primary School	25 Amwell Street	Islington	London	Islington	EC1R 1UN	GB	51.52845773767233	-0.11029553663138435
5300035139	Sacred Heart Roman Catholic Primary School	68 Georges Road	Islington	London	Islington	N7 8JN	GB	51.550219610496605	-0.11364889502568927
5300028964	St John The Evangelist Rc Primary School	39 Duncan Street	Islington	London	Islington	N1 8BL	GB	51.53395062848025	-0.1040699030875906
5300072080	St John's Primary School	16 Pemberton Gardens	Islington	London	Islington	N19 5RR	GB	51.56263073099831	-0.13285796562381508
5300023103	St John's C Of E Primary School Highbury Vale	26 Conewood Street	Islington	London	Islington	N5 1DL	GB	51.55827549983197	-0.1001876129849901
10008977842	St Jude And St Paul's C Of E (va) Primary School	10 Kingsbury Road	Islington	London	Islington	N1 4AZ	GB	51.548221881843794	-0.0797505277540829
5300076871	Caretaker's House St Luke's Primary School	9 Radnor Street	Islington	London	Islington	EC1V 3SJ	GB	51.52654234798791	-0.09196521455798116
5300089141	School Keeper's House St Mark's Primary School	175 Sussex Way	Islington	London	Islington	N19 4JF	GB	51.564001707833484	-0.12016277656733913
10023215180	St Mary Magdalene Academy	475 Liverpool Road	Islington	London	Islington	N7 8PG	GB	51.54736008282806	-0.10974318946093567
5300034261	St Mary's Islington C Of E Primary School	12 Fowler Road	Islington	London	Islington	N1 2EP	GB	51.539536784407524	-0.10029032987164703
5300022998	St Peter's And St Paul's Rc Primary School	43 Compton Street	Islington	London	Islington	EC1V 0EU	GB	51.52497041661437	-0.10093990548305229
5300060949	St Andrew's Primary School	2 Matilda Street	Islington	London	Islington	N1 0LB	GB	51.53818531688245	-0.1146223859260841
5300068459	St Joan Of Arc Primary School	54 Northolme Road	Islington	London	Islington	N5 2UX	GB	51.55672220129606	-0.09700652191258853
5300091370	Christ The King Roman Catholic Primary School	55 Tollington Park	Islington	London	Islington	N4 3QW	GB	51.56650376334328	-0.11469201685904676
5300010702	Blessed Sacrament Roman Catholic Primary School	2 Boadicea Street	Islington	London	Islington	N1 0UF	GB	51.536473298874554	-0.11888918513865696
10023219076	Highbury Grove School	8 Highbury Grove	Islington	London	Islington	N5 2EQ	GB	51.54937130987188	-0.09731328720129213
5300047194	Holloway School	Hilldrop Road	Islington	London	Islington	N7 0JG	GB	51.55307889256298	-0.12935446750230772
10023219013	City Of London Academy - Islington	Prebend Street	Islington	London	Islington	N1 8PQ	GB	51.53594533769233	-0.09785881982188961
5300043848	Highbury Fields School	16-26 Highbury Hill	Islington	London	Islington	N5 1AR	GB	51.55280275539419	-0.10152633847988024
10090549217	Finsbury Park Learning Zone	Turle Road	Islington	London	Islington	N4 3LS	GB	51.56689490580555	-0.1160898834252884
5300078354	Elizabeth Garrett Anderson School	Donegal Street	Islington	London	Islington	N1 9QG	GB	51.532953436272145	-0.11361301101893309
5300025018	Central Foundation School	15 Cowper Street	Islington	London	Islington	EC2A 4SH	GB	51.52525568193047	-0.0858489863065424
10012787897		32 Hornsey Lane	Islington	London	Islington	N6 5LY	GB	51.569818062464776	-0.1386673598123692
5300029131	Mount Carmel Catholic College For Girls	91 Duncombe Road	Islington	London	Islington	N19 3EU	GB	51.56817146697723	-0.12955750021771473
5300036480	Lionel Denny House	23 Goswell Road	Islington	London	Islington	EC1M 7AJ	GB	51.52224062693259	-0.09785335439144897
5300026651	Dallington School	8 Dallington Street	Islington	London	Islington	EC1V 0BW	GB	51.524639205548844	-0.10047796755117443
200000071092		40 Charterhouse Square		London	City Of London	EC1M 6EA	GB	51.52042233275985	-0.09885163968612018
10008304610	Little Angels Schoolhouse Independent Daycare	5 Bletchley Street	Hackney	London	Hackney	N1 7QG	GB	51.531269678613675	-0.09179639293161362
10090548161	Richard Cloudesley School Tudor Rose Building	1 Prebend Street	Islington	London	Islington	N1 8RE	GB	51.53599634424833	-0.09823159523976828
5300030657	New River College	Elthorne Road	Islington	London	Islington	N19 4AB	GB	51.565759476597876	-0.13225364775401838
217106061	Golborne Childrens Centre	2a Bevington Road		London	Kensington And Chelsea	W10 5TN	GB	51.520309107936	-0.2058388877707772
217032756	St Annes Nursery School	194 Freston Road		London	Kensington And Chelsea	W10 6TT	GB	51.51373522057274	-0.21997600630931624
217125428	Chelsea Open Air Children's Centre	51 Glebe Place		London	Kensington And Chelsea	SW3 5JE	GB	51.48527841976334	-0.16943480444473263
217057292	Maxilla Nursery School	4 Maxilla Walk		London	Kensington And Chelsea	W10 6NQ	GB	51.51621991953102	-0.21601650349821888
217005388	Ashburnham Primary School	17 Blantyre Street		London	Kensington And Chelsea	SW10 0DT	GB	51.481370545061665	-0.17892373055310057
217003317	Barlby Primary School	Barlby Road		London	Kensington And Chelsea	W10 6BH	GB	51.52372061709709	-0.21549273556300919
217125516	Main Building Bevington Primary School	Bevington Road		London	Kensington And Chelsea	W10 5TW	GB	51.521341460281754	-0.2080758018783362
217125429	Nursery School Colville Primary School	Lonsdale Road		London	Kensington And Chelsea	W11 2DF	GB	51.51494226620716	-0.20300874373501307
217125480	Fox Primary School	Kensington Place		London	Kensington And Chelsea	W8 7PP	GB	51.50724088988986	-0.1970625611079814
217125534	Play Centre Nursery Marlborough Primary School	Draycott Avenue		London	Kensington And Chelsea	SW3 3AP	GB	51.49292082186433	-0.16647805157564866
217063368	School Oxford Gardens Primary School	Oxford Gardens		London	Kensington And Chelsea	W10 6NF	GB	51.5168434860006	-0.2185864857408082
217116114	College	Park Walk		London	Kensington And Chelsea	SW10 0AY	GB	51.48415251619873	-0.17797754217784958
217077267	Avondale Park Primary School	Sirdar Road		London	Kensington And Chelsea	W11 4EE	GB	51.510655821740315	-0.2137983910541229
217081711	Thomas Jones Primary School	St Mark's Road		London	Kensington And Chelsea	W11 1RQ	GB	51.51572513548114	-0.21127964818741288
217014914	Christchurch C Of E Primary School	1 Robinson Street		London	Kensington And Chelsea	SW3 4AA	GB	51.48549578141028	-0.1643561621042991
217076472	Holy Trinity Church Of England Primary School	Sedding Street		London	Kensington And Chelsea	SW1X 9DE	GB	51.493442721422745	-0.15674763727273014
217008260	Oratory School	Bury Walk		London	Kensington And Chelsea	SW3 6QH	GB	51.49050452188648	-0.17010417297072475
217120632	St Thomas Church Of England Primary School	Appleford Road		London	Kensington And Chelsea	W10 5EF	GB	51.52396903887025	-0.20937093931736955
217025972	St Barnabas & St Philips C Of E Primary School	58 Earl's Court Road		London	Kensington And Chelsea	W8 6EJ	GB	51.49755506509272	-0.1985925950055471
217087230	St Francis Roman Catholic Primary School	Treadgold Street		London	Kensington And Chelsea	W11 4BJ	GB	51.51221430155322	-0.21693680290785827
217067493	St Clements & St James C Of E Primary School	Penzance Place		London	Kensington And Chelsea	W11 4PG	GB	51.509072075294796	-0.21136729985583316
217107976	St Josephs Rc Primary School	Cadogan Street		London	Kensington And Chelsea	SW3 2QT	GB	51.49284197226971	-0.1620154938784601
217043077	School St Mary Abbots Church Of England Primary School	2-4 Kensington Church Court		London	Kensington And Chelsea	W8 4SP	GB	51.502106295628224	-0.19223191950893265
217090436	St Cuthbert With St Matthias School	Warwick Road		London	Kensington And Chelsea	SW5 9UE	GB	51.4894398439057	-0.19365486136419127
217026930	Nursery	East Row		London	Kensington And Chelsea	W10 5AW	GB	51.5251503498984	-0.21076616469184636
217033428	Servite Rc Primary School	252 Fulham Road		London	Kensington And Chelsea	SW10 9NA	GB	51.48516028969841	-0.18381383722774997
217126493	Holland Park School	Airlie Gardens		London	Kensington And Chelsea	W8 7AF	GB	51.504886590542334	-0.20062366041727128
217009720	St Thomas More Roman Catholic Secondary School	Cadogan Street		London	Kensington And Chelsea	SW3 2QS	GB	51.492898375249794	-0.16217168661052855
217080195	Sion Manning Roman Catholic Secondary School	75-77 St Charles Square		London	Kensington And Chelsea	W10 6EL	GB	51.520634200809496	-0.2141428422795967
217016194	Our Lady Of Victories Rc Primary School	Clareville Street		London	Kensington And Chelsea	SW7 5AQ	GB	51.49283532909109	-0.1794608689606667
217080199	St Charles Rc Primary School	83 St Charles Square		London	Kensington And Chelsea	W10 6EB	GB	51.5213326888178	-0.2151680616133018
217073357	Redcliffe School	47 Redcliffe Gardens		London	Kensington And Chelsea	SW10 9JH	GB	51.486156126307144	-0.1865685298172558
217071393	Glendower School	87 Queen's Gate		London	Kensington And Chelsea	SW7 5JX	GB	51.493973316632434	-0.17919944302770321
34041254	Kensington Preparatory School	596 Fulham Road		London	Hammersmith And Fulham	SW6 5PA	GB	51.47735975906398	-0.20222528213456623
217039250		162-166 Holland Park Avenue		London	Kensington And Chelsea	W11 4UH	GB	51.50616333959218	-0.21168294050169598
217072677	School Lycee Francais	1-13 Queensberry Way		London	Kensington And Chelsea	SW7 2DG	GB	51.494603489106055	-0.17635074002735834
217117885	School	68 Cadogan Square		London	Kensington And Chelsea	SW1X 0EA	GB	51.494542025116694	-0.16147171157997123
217113893	Lady Edens	39-41 Victoria Road		London	Kensington And Chelsea	W8 5RJ	GB	51.499117860548985	-0.18563627925704
217092548		6 Wetherby Place		London	Kensington And Chelsea	SW7 4NE	GB	51.49275908442979	-0.1826619266922714
217036036		16-17 Hans Place		London	Kensington And Chelsea	SW1X 0EP	GB	51.49737052947993	-0.1600612674141629
217065813		10-11 Pembridge Square		London	Kensington And Chelsea	W2 4ED	GB	51.511216406801246	-0.19520032553128658
217068696		22-24 Pont Street		London	Kensington And Chelsea	SW1X 0AA	GB	51.497320399379134	-0.15973192577602666
217113790	Garden House School	Turks Row		London	Kensington And Chelsea	SW3 4TW	GB	51.48977350620424	-0.15787514026798866
33034812	St James School	Church Road		Ashford	Surrey	TW15 3DZ	GB	51.438540283148726	-0.4682618553442465
100023585687	Thomas S London Day School	28-40 Battersea High Street		London	Wandsworth	SW11 3JB	GB	51.4743295736011	-0.1743082493982129
217065847		18 Pembridge Square		London	Kensington And Chelsea	W2 4EH	GB	51.51154140078542	-0.1935301705050579
217068640	School	67 Pont Street		London	Kensington And Chelsea	SW1X 0BD	GB	51.49646193931474	-0.16290716217769413
217019364		17-19 Cottesmore Gardens		London	Kensington And Chelsea	W8 5PR	GB	51.4987661496993	-0.18789779798470443
217106625	Lower First Floor	17 Old Court Place		London	Kensington And Chelsea	W8 4PL	GB	51.50270216664691	-0.18947070196332988
217086526		4 The Vale		London	Kensington And Chelsea	SW3 6AH	GB	51.48556744012212	-0.17528535016165359
217016773		23 Collingham Gardens		London	Kensington And Chelsea	SW5 0HL	GB	51.49225437661438	-0.18840091373006895
217106306		90-92 Queen's Gate		London	Kensington And Chelsea	SW7 5AB	GB	51.49347635302134	-0.1790463761794438
100023466237		56-58 Portland Place		London	City Of Westminster	W1B 1NJ	GB	51.52082744717034	-0.14493222836020125
217045335	Southbank International School	36-38 Kensington Park Road		London	Kensington And Chelsea	W11 3BU	GB	51.51071212953562	-0.19866451544107824
10033541645		23-24 Princes Gate		London	City Of Westminster	SW7 1PT	GB	51.501379729733074	-0.1731986045480337
217122777	Nursery Block A	73 St Charles Square		London	Kensington And Chelsea	W10 6EJ	GB	51.52023036129419	-0.21720563771111737
100062276958	Parkwood Hall School	Beechenlea Lane		Swanley	Kent	BR8 8DR	GB	51.395657392236885	0.19641663513012697
217104439	Medical School	369 Fulham Road		London	Kensington And Chelsea	SW10 9NH	GB	51.48425152295216	-0.1814590773643745
200000487475	Triangle Nursery School	25 William Bonney Estate		London	Lambeth	SW4 7JQ	GB	51.460804482109026	-0.13317312973176
100023571589	Effra Nursery School	Effra Parade		London	Lambeth	SW2 1PL	GB	51.45669975528745	-0.10990678030828983
100023231094	Nursery School	Hotspur Street		London	Lambeth	SE11 6UP	GB	51.49096076738431	-0.1120913673222763
100023364856	Maytree Nursery School	Clarence Crescent		London	Lambeth	SW4 8LN	GB	51.45156161963205	-0.13213971529587712
100023573046	Holmewood Nursery School	Upper Tulse Hill		London	Lambeth	SW2 2RW	GB	51.44750928377757	-0.12053297420507263
200000462875	Elmgreen Secondary School	Elmcourt Road		London	Lambeth	SE27 9BZ	GB	51.43875628406805	-0.10247487750535168
100023570718	Ashmole Primary School	Ashmole Place		London	Lambeth	SW8 1NT	GB	51.48201399005451	-0.11493806162528002
100023365455	Bonneville Primary School	Bonneville Gardens		London	Lambeth	SW4 9LB	GB	51.45313823857983	-0.13967491712047697
200000454983	Clapham Manor Primary School	Belmont Road		London	Lambeth	SW4 0BZ	GB	51.464408353603766	-0.13756099873561828
100023386954	Durand Academy Cowley Road Site	Cowley Road		London	Lambeth	SW9 6HF	GB	51.47440316541945	-0.11139267773037918
100023319950	Granton Primary School	Granton Road		London	Lambeth	SW16 5AN	GB	51.41451083420485	-0.14225012332512862
200000480653	Heathbrook Nursery And Primary School	St Rule Street		London	Lambeth	SW8 3EH	GB	51.47011774292983	-0.14317426654953747
200000467195	Henry Cavendish Primary School Balham	Hydethorpe Road		London	Lambeth	SW12 0JA	GB	51.44474386787262	-0.14280783060354102
200000459612	Henry Fawcett Primary School	Clayton Street		London	Lambeth	SE11 5BZ	GB	51.4847076658091	-0.1118887479470083
200000466729	Hitherfield Primary School	Leigham Vale		London	Lambeth	SW16 2JQ	GB	51.43655986777427	-0.11571646790526326
200000524753	Jessop School	Lowden Road		London	Lambeth	SE24 0BJ	GB	51.460032837413195	-0.10136221467904062
100023225523	Johanna Primary School	Johanna Street		London	Lambeth	SE1 7RH	GB	51.50070680636688	-0.111414874299475
100023571778	Kingswood Primary (upper) School	188 Gipsy Road		London	Lambeth	SE27 9RD	GB	51.426891434946384	-0.09007755924652763
10000444683	Larkhall Infant School	Smedley Street		London	Lambeth	SW4 6PH	GB	51.46987553136651	-0.13019677662163615
100023246994	Paxton Primary School	Woodland Road		London	Lambeth	SE19 1PA	GB	51.42196219801078	-0.08119276903042637
200000524677	Richard Atkins School	New Park Road		London	Lambeth	SW2 4JP	GB	51.448088706075936	-0.12695658578676836
200003496522		27 Turney Road		London	Southwark	SE21 8LX	GB	51.44685039242982	-0.09586478685939961
100023389736	Stockwell Primary School	Stockwell Road		London	Lambeth	SW9 9TG	GB	51.46660594468977	-0.11806389060800439
100023354215	Sudbourne Primary School	Hayter Road		London	Lambeth	SW2 5AP	GB	51.458415888922026	-0.11932205565246289
100023318311	Sunnyhill Primary School	Sunnyhill Road		London	Lambeth	SW16 2UW	GB	51.42909456666626	-0.12010911247518273
100023572915	Telferscot Primary School	Telferscot Road		London	Lambeth	SW12 0HW	GB	51.443154381463685	-0.13671341837933274
10000445340	Jubilee Primary School	Tulse Hill		London	Lambeth	SW2 2JE	GB	51.45241137768918	-0.11388363349921035
100023230109	Vauxhall Primary School	Vauxhall Street		London	Lambeth	SE11 5LG	GB	51.48892878950597	-0.11770659978003893
100023231301	Walnut Tree Walk Primary School	Walnut Tree Walk		London	Lambeth	SE11 6DS	GB	51.49394928016335	-0.11339408990277909
100023320010	Woodmansterne Primary School	Stockport Road		London	Lambeth	SW16 5XE	GB	51.4125218167967	-0.13591712945149068
100023384015	Wyvil Primary School	Wyvil Road		London	Lambeth	SW8 2TJ	GB	51.481292746962716	-0.12548125598930446
100023571403	Glenbrook Primary School	Clarence Avenue		London	Lambeth	SW4 8LD	GB	51.45300064647316	-0.13215294461617783
200000460906	Crown Lane Primary School	Crown Lane		London	Lambeth	SW16 3HX	GB	51.42343068259093	-0.10902150264981873
10091118097	City Heights E-act Academy	33 Abbots Park		London	Lambeth	SW2 3PW	GB	51.44219611123098	-0.11314602007473425
100023266752	Elm Wood Primary School	Carnac Street		London	Lambeth	SE27 9RR	GB	51.43201225781572	-0.09197882146933181
200000470294	Allen Edwards Primary School	Studley Road		London	Lambeth	SW4 6RP	GB	51.47239632779274	-0.1275594542553781
100023365037	Kings Avenue Primary School	Kings Avenue		London	Lambeth	SW4 8BQ	GB	51.45710129793415	-0.1298983692984449
200000472804	Loughborough Primary School	Minet Road		London	Lambeth	SW9 7UA	GB	51.46955283277578	-0.10505614539704217
200000486942	Julian's Primary School West Norwood	16 Wolfington Road		London	Lambeth	SE27 0JF	GB	51.43126045187121	-0.10550447634061651
200000465708	Herbert Morrison Primary School	Hartington Road		London	Lambeth	SW8 2HP	GB	51.47865549416445	-0.12589181021919302
100023352500	Streatham Wells Primary School	50 Palace Road		London	Lambeth	SW2 3NJ	GB	51.44005638473992	-0.11561573263869306
200000477868	Archbishop Sumners Church Of England Primary School	Reedworth Street		London	Lambeth	SE11 4PH	GB	51.49159191879457	-0.10996212554058292
100023571219	Christ Church Primary School	Cancell Road		London	Lambeth	SW9 6HN	GB	51.47623032723643	-0.10814911626296879
200000458065	Christchurch Church Of England Primary School	Cotherstone Road		London	Lambeth	SW2 3NF	GB	51.44474645260829	-0.12152423358925125
200000485617	Macaulay Church Of England Primary School	Victoria Rise		London	Lambeth	SW4 0NU	GB	51.4636566004697	-0.14743873920957976
200000467628	St Andrews Church Of England Primary School	Kay Road		London	Lambeth	SW9 9DE	GB	51.46867295840437	-0.12247101920370705
200003496802	St John The Divine Primary School	Warham Street		London	Southwark	SE5 0SX	GB	51.47888351996419	-0.10371895152006441
100023387986	The Olive School	2 Somerleyton Road		London	Lambeth	SW9 8ND	GB	51.46127354480821	-0.11025045944137364
200000477932	St Judes Church Of England Primary School	Regent Road		London	Lambeth	SE24 0EL	GB	51.454319066166036	-0.10503935262567439
100023320542	St Leonards Church Of England School	42 Mitcham Lane		London	Lambeth	SW16 6NP	GB	51.4270769731493	-0.1356700862152887
200000471131	St Lukes Church Of England Primary School	Linton Grove		London	Lambeth	SE27 0DZ	GB	51.426808380873645	-0.09990590203509522
200000465663	St Marks Church Of England Primary School	Harleyford Road		London	Lambeth	SE11 5SL	GB	51.484570018510624	-0.11730997487674805
200000466313	St Saviours Church Of England Primary School	Herne Hill Road		London	Lambeth	SE24 0AY	GB	51.46370909724875	-0.09792723225713655
200000461539	St Stephens Church Of England Primary School	Dorset Road		London	Lambeth	SW8 1EJ	GB	51.479740391073314	-0.12231897122965825
200000485274	Holy Trinity Church Of England Primary School	Upper Tulse Hill		London	Lambeth	SW2 2RL	GB	51.447555556372436	-0.11837236890252202
200000469562	St Helens Roman Catholic Primary School	Knowle Close		London	Lambeth	SW9 0TQ	GB	51.46711585065032	-0.11342130235764082
200000460903	Norwood Girls School	Crown Dale		London	Lambeth	SE19 3NY	GB	51.42318047601858	-0.09966802094932746
200000524408	Stockwell Park High School Academy	Stockwell Park Road		London	Lambeth	SW9 0AL	GB	51.47386746200206	-0.12002579964291425
200000470196	St Gabriel's College	Langton Road		London	Lambeth	SW9 6UL	GB	51.475975782381965	-0.1024139112836698
100023230064	St Annes Roman Catholic Primary School	Durham Street		London	Lambeth	SE11 5JA	GB	51.485618999487606	-0.11935525528528002
200000484584	Corpus Christi Roman Catholic Primary School Annexe	13-15 Trent Road		London	Lambeth	SW2 5BL	GB	51.45555583687259	-0.12041839311494532
200000483857	St Bedes Roman Catholic Primary School	Thornton Road		London	Lambeth	SW12 0LF	GB	51.44452142637219	-0.13559288576749529
200000456798	Immanuel And St Andrew Primary School	Buckleigh Road		London	Lambeth	SW16 5SL	GB	51.41934049387483	-0.1315407199971346
100023386255	Reay Primary School	Hackford Road		London	Lambeth	SW9 0EN	GB	51.47750200996306	-0.11508089117733543
100023385680	Durand Academy Hackford Road Site	Hackford Road		London	Lambeth	SW9 0RD	GB	51.474656056357894	-0.11593260481324463
200000460648	St Marys Roman Catholic Primary School	Crescent Lane		London	Lambeth	SW4 9QJ	GB	51.4592496431548	-0.1383180147816915
200000454981	Bishop Thomas Grant School	Belltrees Grove		London	Lambeth	SW16 2HY	GB	51.42497193772915	-0.1187391878664483
100023572074	Dunraven Upper School	82-100 Leigham Court Road		London	Lambeth	SW16 2QB	GB	51.43310886591104	-0.11977168568012046
200000468068	Archbishop Tenisons School	Kennington Oval		London	Lambeth	SE11 5SR	GB	51.48249011914759	-0.11602741075456328
100023351628	St Martin In The Fields High School	155 Tulse Hill		London	Lambeth	SW2 3UP	GB	51.444151791652594	-0.10970541565409875
100023226882	London Nautical School	61 Stamford Street		London	Lambeth	SE1 9NA	GB	51.50643875108342	-0.10829588224510894
200000485007	Rosendale Infants School	Rosendale Road		London	Lambeth	SE21 8LX	GB	51.44674886132896	-0.09847380979531371
200000484202	Oakfield School	126-128 Thurlow Park Road		London	Lambeth	SE21 8HP	GB	51.44081694422006	-0.09313715698049943
100023572939		70 Thurlow Park Road		London	Lambeth	SE21 8HZ	GB	51.439236066068844	-0.09878585248922649
100023317281	Streatham Hill And Clapham High School	42 Abbotswood Road		London	Lambeth	SW16 1AW	GB	51.435281561784414	-0.13814162399338675
200003440890		31 East Dulwich Grove		London	Southwark	SE22 8PW	GB	51.45928493562998	-0.0769935309565707
100023389621	Lansdowne School	Argyll Close		London	Lambeth	SW9 9QL	GB	51.46709658046959	-0.12005935604785915
200000462853	Elm Court School	Elm Park		London	Lambeth	SW2 2EF	GB	51.448075821862155	-0.11717087463634532
100021832485	Henry Cavendish Primary School Streatham	Dingley Lane		London	Lambeth	SW16 1AU	GB	51.43711649581553	-0.13195208816153556
200000555571	Clyde Street Nursery And Day Centre	Alverton Street		London	Lewisham	SE8 5NH	GB	51.48471488237909	-0.03461550498497611
100023272309	School House	Chelwood Walk		London	Lewisham	SE4 2QQ	GB	51.45857960810645	-0.043065493067103236
100023270163	Abbey Manor College	15 Dressington Avenue	Ladywell	London	Lewisham	SE4 1JQ	GB	51.45272245070982	-0.024662454368033226
10023226960	Adamsrill After School Club	Adamsrill Road		London	Lewisham	SE26 4AQ	GB	51.43084479317323	-0.04137361124468794
100023278134	Athelney Primary School	Athelney Street	Bellingham	London	Lewisham	SE6 3LD	GB	51.434078318726954	-0.023999330529012545
100023232051	Baring Primary School	Linchmere Road		London	Lewisham	SE12 0NB	GB	51.44429108429965	0.014216724378421945
10023232145	Beecroft Garden Childrens Centre	Beecroft Road	Crofton Park	London	Lewisham	SE4 2BS	GB	51.45715697275851	-0.03650485380298829
100023238480	Childeric School	Childeric Road		London	Lewisham	SE14 6DG	GB	51.47637502713971	-0.03815655550399292
100023232060	Coopers Lane Primary School	Pragnell Road		London	Lewisham	SE12 0LF	GB	51.43706282923469	0.020373463748582604
100023253312	Dalmain Primary School	Brockley Rise	Crofton Park	London	Lewisham	SE23 1AS	GB	51.44350263466404	-0.04329279277426953
100023282044	Deptford Park Primary School	Evelyn Street		London	Lewisham	SE8 5RJ	GB	51.488334641322766	-0.03811855311491208
100022889917	Downderry Primary School	Downderry Road		Bromley	Lewisham	BR1 5QL	GB	51.42820622582535	0.0003752677220313879
100023237856	Edmund Waller Primary School	Waller Road		London	Lewisham	SE14 5LY	GB	51.47102328469399	-0.04886855375808954
100023278051	Elfrida Primary School	Elfrida Crescent	Bellingham	London	Lewisham	SE6 3EN	GB	51.428945024582305	-0.023559071665618457
100023276394	Forster Park Primary School	Boundfield Road		London	Lewisham	SE6 1PQ	GB	51.4339938877545	0.0037501454132725038
100023271562	Gordonbrock Primary School	Amyruth Road	Crofton Park	London	Lewisham	SE4 1HQ	GB	51.456122709047705	-0.02792709516317171
100023281845	Grinling Gibbons Primary School	Clyde Street		London	Lewisham	SE8 5LW	GB	51.48146164347089	-0.02938335271627095
100023263624	Haseltine Primary School	Haseltine Road		London	Lewisham	SE26 5AD	GB	51.428192449460376	-0.036567221102836736
100023235554	Brindishe Green Primary School	Beacon Road	Hither Green	London	Lewisham	SE13 6EH	GB	51.45104878286232	-0.004426647626923853
100023278879	Holbeach Primary School	Doggett Road		London	Lewisham	SE6 4QB	GB	51.44790493107903	-0.023215343615851237
100023272228	John Stainer Primary School	St Asaph Road		London	Lewisham	SE4 2DY	GB	51.46420685903733	-0.03916797948112144
100021972842	Kelvin Grove Childrens Centre	Kelvin Grove		London	Lewisham	SE26 6BB	GB	51.4328215875097	-0.06183350046592652
100023237482	Kender Primary School	Kender Street		London	Lewisham	SE14 5JA	GB	51.47495851897315	-0.05081745352853869
100022890108	Launcelot Primary School	Launcelot Road		Bromley	Lewisham	BR1 5EA	GB	51.42656864515583	0.014602446700825935
100023234112	Brindishe Manor Primary School	Leahurst Road		London	Lewisham	SE13 5LS	GB	51.45213177698745	0.003781430471472976
100023281113	Lucas Vale Primary School	Thornville Street		London	Lewisham	SE8 4QB	GB	51.47142999715914	-0.028562958050118978
100023233133	Marvels Lane Primary School	Riddons Road	Grove Park	London	Lewisham	SE12 9RA	GB	51.42872180394812	0.03312526382155773
100023237884	Haberdashers Askes Hatcham College	Hunsdon Road		London	Lewisham	SE14 5RD	GB	51.4795535462195	-0.04702115099621516
100021915131	Haberdashers Askes Knights Temple Grove	Ballamore Road		Bromley	Lewisham	BR1 5LW	GB	51.432588702868834	0.015946302162470057
10023226858	Rangefield After School Club	Rangefield Road		Bromley	Lewisham	BR1 4RP	GB	51.424408838033216	0.003676050809458261
100023278676	Rathfern Primary School	Rathfern Road		London	Lewisham	SE6 4NL	GB	51.44119357017092	-0.032671296377843016
200000556247	Rushey Green Primary School	Culverley Road	Catford	London	Lewisham	SE6 2LA	GB	51.44207388972459	-0.01820047432220308
100023276393	Sandhurst Junior School	Minard Road		London	Lewisham	SE6 1NW	GB	51.44311146379479	-0.00039807445220543103
100023253750	Stillness Junior School	Brockley Rise	Crofton Park	London	Lewisham	SE23 1NH	GB	51.44976466228876	-0.038635446367010114
200000557770	Torridon Junior School	Torridon Road		London	Lewisham	SE6 1TG	GB	51.437064734824986	-0.0033527770813642052
100023268042	John Ball Primary School	Southvale Road	Blackheath	London	Lewisham	SE3 0TP	GB	51.46625350512387	0.0051775159438789626
100021970005	School House	Honor Oak Road		London	Lewisham	SE23 3SB	GB	51.44715218615343	-0.054549133327328796
10023232828	Eliot Bank Childrens Centre	Thorpewood Avenue		London	Lewisham	SE26 4BU	GB	51.43658832237018	-0.061760388395271225
100023282048	Sir Francis Drake School	Scawen Road		London	Lewisham	SE8 5AE	GB	51.48547426906435	-0.04184219761764593
10023232146	Myatt Garden Nursery School	Rokeby Road		London	Lewisham	SE4 1DF	GB	51.47033613749649	-0.031432260712191615
100023256409	Horniman Primary School	Horniman Drive		London	Lewisham	SE23 3BP	GB	51.44381578879508	-0.05942534451502616
100023254119	Perrymount Primary School	Sunderland Road	Forest Hill	London	Lewisham	SE23 2PX	GB	51.43691450682909	-0.04673974745173136
100023281192	Ashmead Primary School	Ashmead Road		London	Lewisham	SE8 4DX	GB	51.469269601559894	-0.025229274578809774
100023232774	Brindishe Lee Primary School	Wantage Road		London	Lewisham	SE12 8NA	GB	51.453808357913516	0.008806238590722174
100023255331	Kilmorie Primary School	Kilmorie Road		London	Lewisham	SE23 2SP	GB	51.43862495538985	-0.03984653141572741
100021932626		1 Blackheath Vale	Blackheath	London	Lewisham	SE3 0TX	GB	51.46955922648484	0.0038106108579332113
100023272525	St Mary Magdalen's Catholic Primary School	Howson Road	Crofton Park	London	Lewisham	SE4 2BB	GB	51.458906657563716	-0.03788366689791733
100023255187	School House	Perry Vale	Forest Hill	London	Lewisham	SE23 2NE	GB	51.437365505237224	-0.05168446909939774
200000548270	Good Shepherd Roman Catholic School	Moorside Road		Bromley	Lewisham	BR1 5EP	GB	51.42680172906095	0.010455407189032434
100023256721	Holy Trinity Church Of England School	Dartmouth Road		London	Lewisham	SE23 3HZ	GB	51.435604929955446	-0.05667998650722519
100023234203	St Margarets Lee Church Of England Primary School	Lee Church Street		London	Lewisham	SE13 5SG	GB	51.459600658361886	0.005073043239779597
100023569352	St Augustines Roman Catholic Primary School	Dunfield Road	Bellingham	London	Lewisham	SE6 3RD	GB	51.42397809532908	-0.016466242064915173
200000552208	St Bartholomews Primary School	The Peak		London	Lewisham	SE26 4LJ	GB	51.43081034296709	-0.05604904357313236
10023232825	St James Hatcham Nursery	4 St James's		London	Lewisham	SE14 6AD	GB	51.4739588561983	-0.03886501553524529
200000563497	St Johns Baptist Ce Primary School	Beachborough Road		Bromley	Lewisham	BR1 5RL	GB	51.42899628639871	-0.011703023268378505
200000546052	St Josephs Roman Catholic School	Crossfield Street		London	Lewisham	SE8 3PH	GB	51.478920718012404	-0.025345271242699027
200000555449	St Marys Church Of England School	Lewisham High Street	Hither Green	London	Lewisham	SE13 6NX	GB	51.45502991013077	-0.015393921804262873
200000553961	St Michael's Church Of England Primary School	Champion Road		London	Lewisham	SE26 4HH	GB	51.42934191655863	-0.04130841147230392
10023233952	Our Lady And St Philip Neri Catholic Primary School	Sydenham Road		London	Lewisham	SE26 5SE	GB	51.426242117359955	-0.04146973884543865
100023235382	St Saviour's Rc Primary School	10 Bonfield Road	Hither Green	London	Lewisham	SE13 6AL	GB	51.459944999044716	-0.010387015467928305
200000545825	St Stephens Church Of England Primary School	Albyn Road		London	Lewisham	SE8 4ED	GB	51.47072586284581	-0.024662430436880017
100023232105	St Winifreds Catholic Infant School	103 Effingham Road		London	Lewisham	SE12 8NS	GB	51.4535412566622	0.0054984029546061896
100023238950	Deptford Green Secondary School	Edward Street		London	Lewisham	SE14 6AN	GB	51.478250300943685	-0.03575749445206468
100023569263	Sydenham Secondary School	Dartmouth Road		London	Lewisham	SE26 4RD	GB	51.43423027825288	-0.05892519387200697
100022889953	Haberdashers Askes Knights Academy	Launcelot Road		Bromley	Lewisham	BR1 5EB	GB	51.427912603805154	0.016459743594826215
100023254151	Forest Hill Secondary School	Dacres Road		London	Lewisham	SE23 2XN	GB	51.43191426175712	-0.047801835875476865
100023271532	Prendergast Ladywell Fields College	Manwood Road		London	Lewisham	SE4 1SA	GB	51.45024652127926	-0.02715846254021608
100023570118	Addey And Stanhope Secondary School	472 New Cross Road		London	Lewisham	SE14 6TJ	GB	51.47460166610317	-0.027864609958715085
200000548446	Trinity Church Of England Secondary School	Taunton Road		London	Lewisham	SE12 8PD	GB	51.455215364065424	0.007514972085164413
100023270080	Prendergast Hilly Fields College Annex	Adelaide Avenue	Ladywell	London	Lewisham	SE4 1LE	GB	51.45930926215115	-0.02597593823571054
100022890112	Bonus Pastor Catholic College	Winlaton Road		Bromley	Lewisham	BR1 5PZ	GB	51.42659095348469	-0.0014070933191579693
100023272652	Turnham Primary School	Turnham Road		London	Lewisham	SE4 2HH	GB	51.45892464848011	-0.042187028848182234
100023278221	St Dunstans College	Stanstead Road	Crofton Park	London	Lewisham	SE6 4TY	GB	51.44381643484536	-0.028745127235653763
10010201475	Blackheath High School	27 Vanbrugh Park		Blackheath	Greenwich	SE3 7AG	GB	51.47784174182705	0.015513795813034791
100023264593	Sydenham High School	Westwood Hill		London	Lewisham	SE26 6BL	GB	51.42635104831975	-0.06426502848401032
100023270373		71 Tressillian Road		London	Lewisham	SE4 1YA	GB	51.46274574496833	-0.02818864090052799
10090785820	Haberdashers Askes Hatcham Temple Grove Free School	Pepys Road		London	Lewisham	SE14 5SF	GB	51.4680771356411	-0.042601545540322576
100023255444	Brent Knoll School	Mayow Road		London	Lewisham	SE23 2XH	GB	51.4308881487837	-0.04558693373018922
100022889950	New Woodlands School	49 Shroffold Road		Bromley	Lewisham	BR1 5PD	GB	51.429479115090594	0.00166805335848907
100023272527	Drumbeat Brockley School	Revelon Road		London	Lewisham	SE4 2PR	GB	51.46268763638431	-0.04242907595326546
100023278156	Watergate School	Lushington Road	Bellingham	London	Lewisham	SE6 3WG	GB	51.425259260491146	-0.022035120818120976
200003468846	Boucher School	91-93 Grange Road		London	Southwark	SE1 3BW	GB	51.493885980457605	-0.07628682157140804
10009791130	Ann Bernadt Early Years Centre	29 Chandler Way		London	Southwark	SE15 6DT	GB	51.477304822915954	-0.07800701583106376
200003494313	Dulwich Wood Nursery School And Children Centre	Lyall Avenue		London	Southwark	SE21 8QS	GB	51.43138251383904	-0.07984859774581031
200003385455	Nell Gwynn Nursery School	Meeting House Lane		London	Southwark	SE15 2TT	GB	51.47487094006786	-0.06453006758317124
10009794746		2 Davey Street		London	Southwark	SE15 6LF	GB	51.48173402518043	-0.07501236786949049
200003468825	Albion Junior And Infant School	Albion Street		London	Southwark	SE16 7JD	GB	51.49994523025616	-0.051667785870360174
200003495179	Bellenden Primary School	Reedham Street		London	Southwark	SE15 4PF	GB	51.4669958212476	-0.07067996054397721
200003468838	Bessemer Grange Primary School	Dylways		London	Southwark	SE5 8HP	GB	51.45874403549235	-0.08680483820625934
200003468827	Brunswick Park Primary School	Bantry Street		London	Southwark	SE5 7QH	GB	51.47769833322758	-0.08887757427606624
200003378821	Camelot Primary School	Bird In Bush Road		London	Southwark	SE15 1QP	GB	51.48042822699021	-0.06343068672625421
200003356434	Charles Dickens Primary School	Toulmin Street		London	Southwark	SE1 1AF	GB	51.50128340905182	-0.09646400969367623
200003453361	Cobourg Primary School	Cobourg Road		London	Southwark	SE5 0JD	GB	51.48479621926792	-0.07694306268340377
200003453190	Comber Grove Primary School	Comber Grove		London	Southwark	SE5 0LQ	GB	51.4776202756351	-0.09734855703469941
200003468862	Crampton Primary School	Peacock Street		London	Southwark	SE17 3LE	GB	51.48997113616641	-0.10092535141716504
200003465355	Crawford Primary School	Crawford Road		London	Southwark	SE5 9NF	GB	51.47210765030844	-0.0956772395673763
200003440964	Dog Kennel Hill Primary School	Dog Kennel Hill		London	Southwark	SE22 8AB	GB	51.465397490264365	-0.08288410355172267
200003435244	Dulwich Hamlet Junior School	Dulwich Village		London	Southwark	SE21 7AL	GB	51.45020285288047	-0.08691724852026775
200003407200	Southwark Park Primary School	Galleywall Road		London	Southwark	SE16 3PB	GB	51.48984105084084	-0.05947385299451662
200003400604	Gloucester Primary School	Longhope Close		London	Southwark	SE15 6FL	GB	51.48062718615393	-0.07825618871376373
200003468845	Goodrich Junior And Infant School	Goodrich Road		London	Southwark	SE22 0EP	GB	51.44993926632618	-0.06810327435611477
200003366576	Grange Primary School	Webb Street		London	Southwark	SE1 4RP	GB	51.4961457984072	-0.08193997072371981
200003468850	Heber Primary School	Heber Road		London	Southwark	SE22 9LA	GB	51.45286254074887	-0.07360757762403407
200003468851	Hollydale Primary School	Hollydale Road		London	Southwark	SE15 2AR	GB	51.46768507136986	-0.052538436786173065
200003407099	Ilderton Primary School	Ilderton Road		London	Southwark	SE16 3LA	GB	51.4850085051405	-0.05437861804149244
200003390174	Ivydale Primary School	Ivydale Road		London	Southwark	SE15 3BU	GB	51.459612857813816	-0.04624584381121994
200003385346	John Donne Primary School	Woods Road		London	Southwark	SE15 2SW	GB	51.47304642268072	-0.06132420730618377
200003493957	John Ruskin Junior And Infant School	John Ruskin Street		London	Southwark	SE5 0PQ	GB	51.48305806196157	-0.09717984056629406
200003374339	Globe Academy Primary School	Harper Road		London	Southwark	SE1 6AF	GB	51.49539068091968	-0.09243078804449756
200003468841	Keyworth Junior And Infant School	Faunce Street		London	Southwark	SE17 3TR	GB	51.48669581474455	-0.10469118286437214
200003436393	Dulwich Wood Primary School	Bowen Drive		London	Southwark	SE21 8NS	GB	51.431804713738664	-0.08201764143905707
200003468847	Lyndhurst Primary School	Grove Lane		London	Southwark	SE5 8SN	GB	51.4703661993994	-0.08813289529285101
200003427873		1 Hopwood Road		London	Southwark	SE17 2HR	GB	51.48525315233224	-0.08838887314269124
200003390272	Peckham Rye Junior And Infant School	Whorlton Road		London	Southwark	SE15 3PD	GB	51.464524644782514	-0.0631538849871399
200003495579	Redriff Primary School	Salter Road		London	Southwark	SE16 5LQ	GB	51.501925039312496	-0.036655990211479215
200003468840	Riverside Primary School	Farncombe Street		London	Southwark	SE16 4PS	GB	51.499337808042476	-0.06494886663542
10000811654	Robert Browning Primary School	King And Queen Street		London	Southwark	SE17 1DQ	GB	51.48883812504151	-0.09261787167085409
200003404391	Rotherhithe School	Rotherhithe New Road		London	Southwark	SE16 2PL	GB	51.4915790690589	-0.049863701645105764
200003362342	Snowsfields Primary School	Kirby Grove		London	Southwark	SE1 3TD	GB	51.501510055607795	-0.08387601085768524
200003404525	Southwark Park Primary School	383 Southwark Park Road		London	Southwark	SE16 2JH	GB	51.49427235642562	-0.058262824928359144
200003359584	Tower Bridge Primary School	Fair Street		London	Southwark	SE1 2AE	GB	51.50158658790497	-0.07701437039465546
200003420922	Townsend Primary School	Townsend Street		London	Southwark	SE17 1HJ	GB	51.49279075662148	-0.08519242925961501
200003468875	Victory Primary School	Elba Place		London	Southwark	SE17 1PT	GB	51.49277552387991	-0.09308737492569416
200003496848	Charlotte Sharman Primary School	West Square		London	Southwark	SE11 4SN	GB	51.49578697622974	-0.10578356937548121
200003494389	Eveline Lowe Annexe	7 Marlborough Grove		London	Southwark	SE1 5JT	GB	51.48618716938336	-0.06855924574404028
10000811929	Pilgrims Way Primary School	Ilderton Road		London	Southwark	SE15 1EF	GB	51.480484112277374	-0.055939357302078
200003417883	Alfred Salter Primary School	Quebec Way		London	Southwark	SE16 7LP	GB	51.499603595261675	-0.043570706267256724
200003491994	Alma Primary School	Alexis Street		London	Southwark	SE16 3XF	GB	51.493182777797166	-0.06742802798055866
200003494972	Oliver Goldsmith Primary School	Peckham Road		London	Southwark	SE5 8UH	GB	51.47472288442683	-0.07794274604019288
200003493525	St Francis R C Primary School	Friary Road		London	Southwark	SE15 1RQ	GB	51.480029765469425	-0.0670767933642476
200003375231	St Georges Cathedral Primary School	33 Westminster Bridge Road		London	Southwark	SE1 7JB	GB	51.49837653323791	-0.10657782152555062
200003410782	St James C Of E Primary School	Old Jamaica Road		London	Southwark	SE16 4SU	GB	51.49783773727856	-0.06777860586942289
200003491984	St Johns And St Clements Primary School	Adys Road		London	Southwark	SE15 4DY	GB	51.463093363855926	-0.07179471559576701
200003420923	St Johns Walworth C Of E Junior And Infant School	Larcom Street		London	Southwark	SE17 1NQ	GB	51.49067055890828	-0.09581132534769927
200003493563	St Josephs Rc Infant And Junior School	George Row		London	Southwark	SE16 4UP	GB	51.49961096652399	-0.06951899858461481
200003468844	St Josephs Rc Primary School	Gomm Road		London	Southwark	SE16 2TY	GB	51.495021713152845	-0.05193536397429525
200003468830	St Josephs Catholic Primary School	Little Dorrit Court		London	Southwark	SE1 1NJ	GB	51.50275019667531	-0.0932041317895025
200003372419	St Judes Southwark C Of E Primary School	Colnbrook Street		London	Southwark	SE1 6HA	GB	51.49685931538248	-0.1053645319077577
200003493579	St Mary Magdelene C Of E Primary School	48 Brayards Road		London	Southwark	SE15 3RA	GB	51.46854935166473	-0.06291145564207445
200003492133	Peter Hills With St Marys And St Pauls Primary School	Beatson Walk		London	Southwark	SE16 5ED	GB	51.506195004801754	-0.04248141105931336
200003468864	St Pauls Primary School	Penrose Street		London	Southwark	SE17 3DT	GB	51.48633628291514	-0.09914629595112337
200003468866	The Cathedral School Of St Saviour And St Mary Overy	Redcross Way		London	Southwark	SE1 1HG	GB	51.50290779007652	-0.09404767602584885
200003415644	St Johns R C Primary School	St Elmos Road		London	Southwark	SE16 6SD	GB	51.50029759271397	-0.04150943805128942
200003404940	Harris Academy	55 Southwark Park Road		London	Southwark	SE16 3TZ	GB	51.49325834962005	-0.07092545587562035
200003468831	Kingsdale School	Bowen Drive		London	Southwark	SE21 8SQ	GB	51.432230809348056	-0.08497782519160461
200003449057	The Charter School	Red Post Hill		London	Southwark	SE24 9JH	GB	51.456410538353936	-0.08929185090058275
200003468852	Harris Girls Academy East Dulwich	Homestall Road		London	Southwark	SE22 0NR	GB	51.45750081053099	-0.05497281082931909
200003468849	Globe Academy Secondary School	Harper Road		London	Southwark	SE1 6AG	GB	51.49559832373239	-0.09082299139236455
10090287303	Ephraim Early Years Nursery School Peckham Academy	112 Peckham Road		London	Southwark	SE15 5DZ	GB	51.47293752101418	-0.0738131532385877
200003363943	St Saviours And St Olaves C Of E Secondary School	New Kent Road		London	Southwark	SE1 4AN	GB	51.49466440002289	-0.08759179140730368
200003468878	Ark All Saints Academy	140 Wyndham Road		London	Southwark	SE5 0UB	GB	51.478318174087434	-0.1004589520596887
200003449039	St Francesca Cabrini R C Primary And Nursery Schools	Forest Hill Road		London	Southwark	SE23 3LE	GB	51.44910563462529	-0.053588186684467895
200003468828	St Anthonys R C Primary School	Barry Road		London	Southwark	SE22 0LA	GB	51.44970830161163	-0.07209964599537474
200003495033	St Josephs R C Primary School	Pitman Street		London	Southwark	SE5 0TS	GB	51.47926563071318	-0.09899384882340692
200003496839	Rushworth And Friars Primary School	Webber Street		London	Southwark	SE1 0RF	GB	51.501245779776035	-0.10302136467699682
200003422804	Surrey Square Primary School	Surrey Square		London	Southwark	SE17 2JY	GB	51.48874422918319	-0.0829996503096956
200003493834	St Thomas The Apostle College	Hollydale Road		London	Southwark	SE15 2EB	GB	51.47074269961052	-0.056339100110384295
200003468853	St Michaels Catholic College	Llewellyn Street		London	Southwark	SE16 4UN	GB	51.50044781111973	-0.06791314886655182
200003372418	Notre Dame School	118 St Georges Road		London	Southwark	SE1 6EX	GB	51.49697971202852	-0.10613751545371239
200003468833	Sacred Heart Secondary School	296 Camberwell New Road		London	Southwark	SE5 0RP	GB	51.475252845971426	-0.09720226769134548
200003434062	Dulwich College	Dulwich Common		London	Southwark	SE21 7LD	GB	51.44028033676281	-0.08504403462583406
200003434058		38-42 Alleyn Park		London	Southwark	SE21 7AA	GB	51.43420426430017	-0.08522620257770568
200003468839	James Allens Girls School	East Dulwich Grove		London	Southwark	SE22 8TE	GB	51.45542007586083	-0.08555394754868201
200003440977	Alleyns School	Townley Road		London	Southwark	SE22 8SU	GB	51.454781011062614	-0.08201910602038184
200003449625		127 Herne Hill		London	Southwark	SE24 9LY	GB	51.454705366553604	-0.09890605373396771
10000811707	Chrystolyte School Lansdowne Centre	Lansdowne Place		London	Southwark	SE1 4XH	GB	51.4966476517791	-0.08678843522577528
200003371869	Spa School	Monnow Road		London	Southwark	SE1 5RN	GB	51.49173787212922	-0.06760437824142748
200003385972	Newlands School	Stuart Road		London	Southwark	SE15 3AZ	GB	51.45877075527196	-0.04967903299496229
200003400125	Haymerle School	Haymerle Road		London	Southwark	SE15 6SY	GB	51.48115388802864	-0.06980885746739729
200003469055	Beormund Primary School	Crosby Row		London	Southwark	SE1 3PS	GB	51.50074880272771	-0.08847533806521791
200003407202	Cherry Garden School	Macks Road		London	Southwark	SE16 3XU	GB	51.49265418148423	-0.0664563921812891
6071074	Childrens House Nursery School	92 Bruce Road		London	Tower Hamlets	E3 3HL	GB	51.52626891182506	-0.01745872866164294
6007611	Lansbury Lawrence Junior Mixed School	Cordelia Street		London	Tower Hamlets	E14 6DZ	GB	51.51337827279448	-0.017211392505101578
6005101	Columbia Market Nursery School	Columbia Road		London	Tower Hamlets	E2 7PG	GB	51.528553980389255	-0.0741914771307656
6029749	Old Church Nursery School	Walter Terrace		London	Tower Hamlets	E1 0RJ	GB	51.515768182166475	-0.044939183752825226
6038799	Rachel Keeling Nursery School	Morpeth Street		London	Tower Hamlets	E2 0PS	GB	51.527693049553505	-0.047138732125879365
6036396	Alice Model Nursery School	14-24 Beaumont Grove		London	Tower Hamlets	E1 4NQ	GB	51.52102507553735	-0.04661188195055717
6049032	Ben Jonson Primary School	Harford Street		London	Tower Hamlets	E1 4PZ	GB	51.52095457322213	-0.037798030080743776
6038359	Bonner Primary School	Hartley Street		London	Tower Hamlets	E2 0NF	GB	51.52941846074532	-0.048419404162091666
6070383	Old Palace Primary School	St Leonards Street		London	Tower Hamlets	E3 3BT	GB	51.527634116322474	-0.01417005513115406
6129881	Canon Barnett Primary School	Gunthorpe Street		London	Tower Hamlets	E1 7RQ	GB	51.516311948313714	-0.07181085298860077
6047332	Cayley Primary School	Aston Street		London	Tower Hamlets	E14 7NG	GB	51.51530227866062	-0.03804095511942522
6024901	Blue Gates Infants And Junior School	King David Lane		London	Tower Hamlets	E1 0EH	GB	51.51055548405988	-0.05431357263579816
6052143	Chisenhale Primary School	Chisenhale Road		London	Tower Hamlets	E3 5QY	GB	51.532951588863305	-0.03892586144541577
6004932	Columbia Primary School	Columbia Road		London	Tower Hamlets	E2 7RG	GB	51.529242769517616	-0.07014000659140288
6147903	Cubitt Town Infants Primary School	Glengall Grove		London	Tower Hamlets	E14 3NE	GB	51.49481396957298	-0.009741031817311674
6135945	Culloden Primary School	Dee Street		London	Tower Hamlets	E14 0PT	GB	51.5132174830149	-0.00678662876426639
6043233		49 Three Colt Street		London	Tower Hamlets	E14 8HH	GB	51.51058415797312	-0.030173288453578178
6070384	Clara Grant Primary School	Knapp Road		London	Tower Hamlets	E3 4BU	GB	51.52178372887568	-0.019714877089236967
6038802	Globe Primary School	Gawber Street		London	Tower Hamlets	E2 0JH	GB	51.52896152816035	-0.05149610610165053
6015888	Hague Primary School	Wilmot Street		London	Tower Hamlets	E2 0BP	GB	51.5249513413599	-0.05912032680287222
6107574	Harbinger Primary School	Cahir Street		London	Tower Hamlets	E14 3QP	GB	51.48930898226517	-0.020114075279785208
6036658	John Scurr Primary School	Cephas Street		London	Tower Hamlets	E1 4AX	GB	51.522170679883004	-0.05249233467201288
6020069	Lawdale Junior School	Mansford Street		London	Tower Hamlets	E2 6LS	GB	51.52844792037034	-0.06283537709879462
6118439	Elizabeth Selby Infants School	Old Bethnal Green Road		London	Tower Hamlets	E2 6PP	GB	51.52838578362692	-0.06342911020671023
6048420	Malmesbury Primary School	Coborn Street		London	Tower Hamlets	E3 2AB	GB	51.528063360321056	-0.029491004196446045
6028495	Marion Richardson School	71 Senrab Street		London	Tower Hamlets	E1 0QF	GB	51.51365604748167	-0.04625899403958143
6070380	Marner Primary School	Devas Street		London	Tower Hamlets	E3 3LL	GB	51.52284298172521	-0.012691915031272493
6173760	Mayflower Primary School	Upper North Street		London	Tower Hamlets	E14 6DU	GB	51.51172804910593	-0.019820533096697294
6652350	Mowlem Childrens Centre	Mowlem Street		London	Tower Hamlets	E2 9HE	GB	51.533666373535794	-0.05430869424290738
6053806	Olga Primary School	Lanfranc Road		London	Tower Hamlets	E3 5DN	GB	51.53071968622355	-0.03667168661928571
6027579	Redlands Primary School	Redmans Road		London	Tower Hamlets	E1 3AQ	GB	51.51907561775534	-0.05131269513548526
6015886	Thomas Buxton Infant School	Buxton Street		London	Tower Hamlets	E1 5AR	GB	51.52198654015253	-0.06581960464681468
6052144	Old Ford Primary School	Wrights Road		London	Tower Hamlets	E3 5LD	GB	51.53321441645756	-0.03181011559167669
6068574	Manorfield Primary School	Wyvis Street		London	Tower Hamlets	E14 6QD	GB	51.51825795743689	-0.013295102277127867
6047609	Sir William Burrough Primary School	Salmon Lane		London	Tower Hamlets	E14 7PQ	GB	51.51375927728867	-0.034504157918985236
6069550	Stebon Primary School	Wallwood Street		London	Tower Hamlets	E14 7AD	GB	51.51678866245467	-0.025869858206675807
6015884	Stewart Headlam Primary School	Tapp Street		London	Tower Hamlets	E1 5RE	GB	51.52326318512329	-0.059811970185570974
6002601	Virginia Primary School	Virginia Road		London	Tower Hamlets	E2 7NQ	GB	51.526616474154025	-0.07558512366470783
6074657	Wellington Primary School	7-11 Wellington Way		London	Tower Hamlets	E3 4NE	GB	51.52569997305831	-0.024244639377990065
6082059	Woolmore Primary School	Woolmore Street		London	Tower Hamlets	E14 0EW	GB	51.510616694036116	-0.008670023638150174
6061293	Seven Mills Primary School	Malabar Street		London	Tower Hamlets	E14 8LY	GB	51.49816247104073	-0.024124699068943534
6016124	Osmani Primary School	Vallance Road		London	Tower Hamlets	E1 5AD	GB	51.52079222766233	-0.06483236031837951
6005510	St Pauls Primary School	Wellclose Square		London	Tower Hamlets	E1 8HY	GB	51.51015461525516	-0.0659604991536979
6131616	Hermitage Primary School	15 Vaughan Way		London	Tower Hamlets	E1W 2PT	GB	51.5053199717782	-0.06616522353044178
6120331	Bangabandhu Primary School	28 Wessex Street		London	Tower Hamlets	E2 0LB	GB	51.5257863885051	-0.0519920670042245
6047368	Halley Primary School	Halley Street		London	Tower Hamlets	E14 7SS	GB	51.51797123870795	-0.037392950374661275
6014144	Bigland Green Primary School	Bigland Street		London	Tower Hamlets	E1 2ND	GB	51.51313629820821	-0.05973787216732063
6012787	Kobi Nazrul Primary School	Settles Street		London	Tower Hamlets	E1 1JP	GB	51.515973667861815	-0.06492129661333336
6027578	Smithy Street Primary School	Smithy Street		London	Tower Hamlets	E1 3BW	GB	51.51876086037985	-0.051311716783100196
6115105	Bygrove Primary School	Bygrove Street		London	Tower Hamlets	E14 6DN	GB	51.51251615414999	-0.018877389106711356
6020119	William Davies Primary School	Wood Close		London	Tower Hamlets	E2 6ET	GB	51.52417598558369	-0.06716838967531132
6000011	Christchurch Primary School	47a Brick Lane		London	Tower Hamlets	E1 6PU	GB	51.518832869277276	-0.07254038871035216
6143689	Guardian Angels School	Whitman Road		London	Tower Hamlets	E3 4RB	GB	51.52480608347003	-0.03688282792347663
6047367	Stepney Greencoat Primary School	Norbiton Road		London	Tower Hamlets	E14 7TF	GB	51.5139311847492	-0.03242136444252965
6114712	Our Lady Of The Assumption Primary School	Bonner Road		London	Tower Hamlets	E2 9JY	GB	51.53275155562269	-0.05120449988013105
6044043	Our Ladys Primary School	Copenhagen Place		London	Tower Hamlets	E14 7DA	GB	51.513334695091075	-0.03047604597063912
6070909	St Agnes Primary School	Rainhill Way		London	Tower Hamlets	E3 3ER	GB	51.52734169917742	-0.018680797491851718
6015883	St Annes Primary School	Underwood Road		London	Tower Hamlets	E1 5AW	GB	51.5213633321875	-0.06838300478097431
6059147	St Edmunds Primary School	Westferry Road		London	Tower Hamlets	E14 3RS	GB	51.49095591973287	-0.022646609276090173
6041349	St Johns C Of E Primary School	Peel Grove		London	Tower Hamlets	E2 9LR	GB	51.53044456708154	-0.05392717709045258
6077554	St Lukes Primary School	Saunders Ness Road		London	Tower Hamlets	E14 3EB	GB	51.49024558218733	-0.0053371629789448986
6027516	St Mary And St Michael Primary School	Sutton Street		London	Tower Hamlets	E1 0BD	GB	51.513706838040804	-0.05292541632924785
6005514	St Patricks Junior School	3 Dundee Street		London	Tower Hamlets	E1W 2PH	GB	51.503714878985754	-0.060621383228655235
6110285	St Pauls With St Lukes School	Leopold Street		London	Tower Hamlets	E3 4LA	GB	51.51795553437598	-0.028413873579237633
6027514	St Peters Primary School	Garnet Street		London	Tower Hamlets	E1W 3QT	GB	51.50597616136266	-0.05527238321226921
6115564	St Saviours Primary School	Chrisp Street		London	Tower Hamlets	E14 6BB	GB	51.51637525456768	-0.01735508999436548
6002556	English Martyrs Primary School	St Mark Street		London	Tower Hamlets	E1 8DJ	GB	51.51266112396816	-0.07182089973936563
6065984	Holy Family Rc Primary School	Wades Place		London	Tower Hamlets	E14 0DE	GB	51.50977007771079	-0.019745904029020656
6107522	Langdon Park Secondary School	Byron Street		London	Tower Hamlets	E14 0RZ	GB	51.514785359862856	-0.012149059513862538
6036909	Morpeth Secondary School	Portman Place		London	Tower Hamlets	E2 0PX	GB	51.52678030366018	-0.04848968843494519
6014338	Mulberry Secondary Girls School	Richard Street		London	Tower Hamlets	E1 2JP	GB	51.513986659271	-0.059499963703317206
6114298	Stepney Green Secondary School	Ben Jonson Road		London	Tower Hamlets	E1 4SD	GB	51.51852838798597	-0.04221206704692978
6176400	St Paul's Way Trust School Trust Plus	115 St Pauls Way		London	Tower Hamlets	E3 4FT	GB	51.518644769130745	-0.02461629909394162
6145604	Bethnal Green Technology College	Gosset Street		London	Tower Hamlets	E2 6NW	GB	51.52739061843665	-0.06961282853348792
6020311	Oaklands Secondary School	Old Bethnal Green Road		London	Tower Hamlets	E2 6PR	GB	51.52919526549375	-0.06206606831885555
6052925	Swanlea Secondary School	31 Brady Street		London	Tower Hamlets	E1 5DJ	GB	51.52074066364205	-0.06007774475161435
6077783	George Green Secondary School	100 Manchester Road		London	Tower Hamlets	E14 3DW	GB	51.488126375238075	-0.007633525464042393
6119540	Sir John Cass Foundation And Redcoat Secondary School	Stepney Way		London	Tower Hamlets	E1 0RH	GB	51.51625065684912	-0.04421227848889984
6027517	Bishop Challoner Boys Campus	Lukin Street		London	Tower Hamlets	E1 0LB	GB	51.51304704998693	-0.05164204606121662
6155338	Madani Girls School	Myrdle Street		London	Tower Hamlets	E1 1HL	GB	51.5154432814317	-0.06275301875762734
6083255	Bromley Hall School	Bromley Hall Road		London	Tower Hamlets	E14 0LF	GB	51.517296412936716	-0.008032754926998037
6048421	Phoenix School	49 Bow Road		London	Tower Hamlets	E3 2AD	GB	51.52774142995943	-0.02698239198320282
6015890	Weavers Fields Special School	Mape Street		London	Tower Hamlets	E2 6HW	GB	51.52475164844645	-0.062271467375844505
6193737	Beatrice Tate School	41 Southern Grove		London	Tower Hamlets	E3 4PX	GB	51.52421648346941	-0.030507470235922714
100023306531	Balham Nursery School	72 Endlesham Road		London	Wandsworth	SW12 8JL	GB	51.44622059552031	-0.1543181947519261
100023301236		157-159 Battersea Church Road		London	Wandsworth	SW11 3ND	GB	51.47602718310657	-0.17475887704722115
100023325055	The Professional Centre	Franciscan Road		London	Wandsworth	SW17 8HE	GB	51.42656685178274	-0.1625902655925225
100023306534	Alderbrook Primary School	Oldridge Road		London	Wandsworth	SW12 8PP	GB	51.44855139416011	-0.14986354446790465
100023327098	Allfarthing Primary School	St Anns Crescent		London	Wandsworth	SW18 2LR	GB	51.4535084621548	-0.1856748086283379
100022668177	Beatrix Potter Primary School	Magdalen Road		London	Wandsworth	SW18 3ER	GB	51.44396900035305	-0.18229709104636133
100023304734	Belleville Primary School	Belleville Road		London	Wandsworth	SW11 6PR	GB	51.45716722818917	-0.16365040942784054
100023300939	Westbridge Primary School Formerly Bolingbroke Primary	Bolingbroke Walk		London	Wandsworth	SW11 3NE	GB	51.477344304384296	-0.17214298274525863
100023385194	Griffin Primary School	Stewarts Road		London	Wandsworth	SW8 4JB	GB	51.47424131872587	-0.1383845135449151
100023312321	Brandlehow Primary School	Brandlehow Road		London	Wandsworth	SW15 2ED	GB	51.46137006716783	-0.20685564865833087
100023321745	Broadwater Primary School	Broadwater Road		London	Wandsworth	SW17 0DZ	GB	51.430866684022696	-0.17361009907896535
100023303694	Chesterton Primary School	Dagnall Street		London	Wandsworth	SW11 5DT	GB	51.47382123447572	-0.15676108852792514
100023321127	Eardley Primary School	Cunliffe Street		London	Wandsworth	SW16 6DS	GB	51.421398933192265	-0.14053251608346728
100023328569	Earlsfield Primary School	Tranmere Road		London	Wandsworth	SW18 3QQ	GB	51.44143598160714	-0.18596621531417154
100022716981	Falconbrook Primary School	Wye Street		London	Wandsworth	SW11 2LX	GB	51.46849075043942	-0.17471410061173004
100023322948	Fircroft Primary School	Fircroft Road		London	Wandsworth	SW17 7PP	GB	51.43688058350702	-0.16426267982689968
100023325077	Franciscan Primary School	Franciscan Road		London	Wandsworth	SW17 8HQ	GB	51.42764601394827	-0.15972750967734886
100023325911		70 Beclands Road		London	Wandsworth	SW17 9TJ	GB	51.422712931235026	-0.15368324262262956
100022679669	High View Primary School High View School	Plough Terrace		London	Wandsworth	SW11 2AA	GB	51.46196353562976	-0.17480178963916315
100023304756	Honeywell Junior And Infant School	Honeywell Road		London	Wandsworth	SW11 6EF	GB	51.45474318578519	-0.16275453347094876
100023311331	Hotham Primary School	Charlwood Road		London	Wandsworth	SW15 1PN	GB	51.464563981586565	-0.22112700529845228
121021268	John Burns Primary School	Wycliffe Road		London	Wandsworth	SW11 5QR	GB	51.4695826508742	-0.153706713506476
100023320889	Penwortham Primary School	Penwortham Road		London	Wandsworth	SW16 6RJ	GB	51.42197199994718	-0.14662215105897858
10024087076	Ravenstone Primary School	Ravenstone Street		London	Wandsworth	SW12 9SS	GB	51.441321241603795	-0.1532782348436451
121048646	Riversdale Primary School	302a Merton Road		London	Wandsworth	SW18 5JP	GB	51.446602401520394	-0.1991018732321205
100023325910	Sellincourt Primary School	Sellincourt Road		London	Wandsworth	SW17 9SA	GB	51.423615210154885	-0.16877859983718974
100023303835	Shaftesbury Park Infants School	Ashbury Road		London	Wandsworth	SW11 5UW	GB	51.46859427881347	-0.15718771641887846
10091499746	Smallwood Children Centre	Smallwood Road		London	Wandsworth	SW17 0TW	GB	51.43119667943449	-0.18037280191460134
100023327771	Swaffield Primary School	St Anns Hill		London	Wandsworth	SW18 2SA	GB	51.451080184228665	-0.18565593638078634
121008606	West Hill Primary School	5 Merton Road		London	Wandsworth	SW18 5ST	GB	51.456053508099096	-0.19851402489747152
100023362682	Wix Primary School	Wixs Lane		London	Wandsworth	SW4 0AJ	GB	51.46386374777767	-0.1514469587863165
100023330392	Sheringdale Primary School	Standen Road		London	Wandsworth	SW18 5TR	GB	51.44637930333399	-0.20390280393814944
100023334989	Southmead Primary School	Princes Way		London	Wandsworth	SW19 6QT	GB	51.44528869376362	-0.21610556248983706
100023315429	Granard Primary School	Cortis Road		London	Wandsworth	SW15 6XA	GB	51.45565086557201	-0.23291652946359154
100023314333	Heathmere Primary School	Alton Road		London	Wandsworth	SW15 4LJ	GB	51.44564253326605	-0.24190845812667236
100023334915	Ronald Ross Primary School	Castlecombe Drive		London	Wandsworth	SW19 6RW	GB	51.449749604497924	-0.21673764507662294
100023334913	Albemarle Primary School	Princes Way		London	Wandsworth	SW19 6JP	GB	51.44202528512753	-0.21380090635512392
100023311250	All Saints Church Of England School	Putney Common		London	Wandsworth	SW15 1HL	GB	51.46740161324845	-0.22739471025759408
100023299935	Christ Church Primary School	Batten Street		London	Wandsworth	SW11 2TH	GB	51.46776449431416	-0.16735709599191423
100023306390	Holy Ghost Roman Catholic Primary School	Nightingale Square		London	Wandsworth	SW12 8QJ	GB	51.44757951647739	-0.15724239932156675
100023310725	Our Lady Of Victories Rc Primary School	1 Clarendon Drive		London	Wandsworth	SW15 1AW	GB	51.46363237048396	-0.22136477922863854
100023299934	Sacred Heart Roman Catholic Primary School	Este Road		London	Wandsworth	SW11 2TD	GB	51.46937718937853	-0.16697571635247876
100023327764	St Annes Church Of England Primary School	208 St Anns Hill		London	Wandsworth	SW18 2RU	GB	51.45621501486776	-0.1891515928796436
100023325059	St Boniface Roman Catholic School	15 Undine Street		London	Wandsworth	SW17 8PP	GB	51.4271935662812	-0.16528386919345267
100023326752	St Faiths Church Of England Primary School	Alma Road		London	Wandsworth	SW18 1AE	GB	51.459594421567004	-0.18729043724920014
100023385242	St Georges C Of E Primary School	Corunna Road		London	Wandsworth	SW8 4JS	GB	51.47716993060729	-0.13933092439971717
100023313005	St Josephs Roman Catholic Primary School	90 Oakhill Road		London	Wandsworth	SW15 2QD	GB	51.45919485405361	-0.20046320399648174
100023311245	St Marys Church Of England School	Felsham Road		London	Wandsworth	SW15 1BA	GB	51.46604577480293	-0.22099739546864836
100023306546	Trinity St Marys Ce Primary School	6 Balham Park Road		London	Wandsworth	SW12 8DR	GB	51.4425414737176	-0.1553874709755806
100023385191	St Marys Roman Catholic Primary School	Lockington Road		London	Wandsworth	SW8 4BE	GB	51.47620354688347	-0.14587920675759747
100023330353	St Michaels School	Granville Road		London	Wandsworth	SW18 5SQ	GB	51.45042003021419	-0.20410403802691565
121024987	Sacred Heart Catholic Primary School	Roehampton Lane		London	Wandsworth	SW15 5NX	GB	51.457612398452156	-0.24196677831826183
100023334960	Our Lady Queen Of Heaven Roman Catholic Primary School	Victoria Drive		London	Wandsworth	SW19 6AD	GB	51.44737347941676	-0.221334642318784
121019126	St Anselms Roman Catholic Primary School	19 Tooting Bec Road		London	Wandsworth	SW17 8BS	GB	51.43573099098764	-0.15805017219086948
100023323171	Ernest Bevin College	Beechcroft Road		London	Wandsworth	SW17 7DF	GB	51.43759602000657	-0.16803246850362322
100023306565	Chestnut Grove School	45 Chestnut Grove		London	Wandsworth	SW12 8JZ	GB	51.44465633416876	-0.15548932618181396
100023302777	Battersea Park School	401 Battersea Park Road		London	Wandsworth	SW11 5AP	GB	51.47324409154357	-0.15952023519669037
100022654432	Hillbrook Primary School	60-86 Hillbrook Road		London	Wandsworth	SW17 8SG	GB	51.4306920409349	-0.15842546753135286
10070244101	Graveney Lower School	Welham Road		London	Wandsworth	SW17 9BU	GB	51.422756054121976	-0.15185479878970423
121009606	Burntwood Secondary School	Burntwood Lane		London	Wandsworth	SW17 0AQ	GB	51.437262531891335	-0.1795274612058547
100023313038	Ark Putney Academy	Pullman Gardens		London	Wandsworth	SW15 3DG	GB	51.454829630144566	-0.2255787898227608
100023334959	Saint John Bosco College	Princes Way		London	Wandsworth	SW19 6QE	GB	51.44796914455361	-0.2196996677671614
10090500039	Southfield Community College	333-337 Merton Road		London	Wandsworth	SW18 5JU	GB	51.445195763183314	-0.19709937357718063
10090497288	Ibstock Place School North Side Ibstock Place School	Clarence Lane		London	Wandsworth	SW15 5PY	GB	51.454734911727485	-0.25340493169138684
100023311697		4-4a Carlton Drive		London	Wandsworth	SW15 2BZ	GB	51.45724687945155	-0.21657501984198654
